"stop_id","stop_code","stop_name","stop_desc","stop_lat","stop_lon","zone_id","stop_url","location_type","parent_station","stop_timezone","wheelchair_boarding"
"1001002-01","","佐賀駅バスセンター 1番のりば","","33.26451","130.29974","1001002-01","","0","1001002","",""
"1005023-20","","佐賀学園北(2)","","33.2677","130.30051","1005023-20","","0","1005023","",""
"1005024-20","","夢咲公園(2)","","33.26845","130.30363","1005024-20","","0","1005024","",""
"1005025-20","","ほほえみ館前(2)","","33.26884","130.30504","1005025-20","","0","1005025","",""
"1005026-20","","夢咲コスモスタウン南(2)","","33.269448","130.30813","1005026-20","","0","1005026","",""
"1005027-20","","夢咲コスモスタウン(2)","","33.27144","130.30849","1005027-20","","0","1005027","",""
"1005028-20","","夢咲コスモスタウン北(2)","","33.2734","130.308","1005028-20","","0","1005028","",""
"1005031-00","","ゆめタウン佐賀","","33.27497","130.30783","1005031-00","","0","1005031","",""
"1005028-10","","夢咲コスモスタウン北(1)","","33.27335","130.30812","1005028-10","","0","1005028","",""
"1005027-10","","夢咲コスモスタウン(1)","","33.27088","130.30873","1005027-10","","0","1005027","",""
"1005026-10","","夢咲コスモスタウン南(1)","","33.26914","130.30754","1005026-10","","0","1005026","",""
"1005025-10","","ほほえみ館前(1)","","33.26872","130.30528","1005025-10","","0","1005025","",""
"1005024-10","","夢咲公園(1)","","33.26836","130.30351","1005024-10","","0","1005024","",""
"1005023-10","","佐賀学園北(1)","","33.26755","130.30011","1005023-10","","0","1005023","",""
"1005029-20","","佐賀清和学園前(2)","","33.27059","130.31064","1005029-20","","0","1005029","",""
"1005030-20","","ぽかぽか温泉前(2)","","33.27265","130.31079","1005030-20","","0","1005030","",""
"1005030-10","","ぽかぽか温泉前(1)","","33.27275","130.31064","1005030-10","","0","1005030","",""
"1005029-10","","佐賀清和学園前(1)","","33.27034","130.3105","1005029-10","","0","1005029","",""
"1001002-03","","佐賀駅バスセンター 3番のりば","","33.26443","130.29936","1001002-03","","0","1001002","",""
"1002003-10","","市役所前(1)","","33.263755","130.300205","1002003-10","","0","1002003","",""
"1002004-20","","駅南本町(2)","","33.261857","130.298712","1002004-20","","0","1002004","",""
"1002005-20","","唐人町(2)","","33.25875","130.299111","1002005-20","","0","1002005","",""
"1002006-20","","白山(2)","","33.255358","130.299751","1002006-20","","0","1002006","",""
"1002007-20","","中の小路(2)","","33.254056","130.299978","1002007-20","","0","1002007","",""
"1002008-20","","佐賀県庁前(2)","","33.251526","130.30029","1002008-20","","0","1002008","",""
"1006032-20","","こころざしのもり(2)","","33.2484","130.30063","1006032-20","","0","1006032","",""
"1006033-20","","サガテレビ前(2)","","33.24727","130.30084","1006033-20","","0","1006033","",""
"1006034-00","","佐賀城跡","","33.2467","130.30214","1006034-00","","0","1006034","",""
"1001002-04","","佐賀駅バスセンター 4番のりば","","33.26442","130.29926","1001002-04","","0","1001002","",""
"1030219-02","","堀江通(2)","","33.26412","130.29416","1030219-02","","0","1030219","",""
"1024168-02","","どんどんどんの森東(2)","","33.2628","130.2935","1024168-02","","0","1024168","",""
"1058324-20","","どんどんどんの森前(2)","","33.25914","130.29182","1058324-20","","0","1058324","",""
"1058325-20","","多布施(2)","","33.25898","130.29041","1058325-20","","0","1058325","",""
"1058326-20","","多布施橋(2)","","33.25855","130.28633","1058326-20","","0","1058326","",""
"1058327-20","","佐賀工業高校前(2)","","33.2579","130.28421","1058327-20","","0","1058327","",""
"1058328-20","","中折(2)","","33.25735","130.2823","1058328-20","","0","1058328","",""
"1058329-20","","北高前(2)","","33.25642","130.27798","1058329-20","","0","1058329","",""
"1058330-20","","新栄小前(2)","","33.25628","130.27544","1058330-20","","0","1058330","",""
"1058331-20","","新栄小西(2)","","33.25608","130.27116","1058331-20","","0","1058331","",""
"1058332-20","","鍋島駅南(2)","","33.25579","130.26526","1058332-20","","0","1058332","",""
"1058333-20","","鍋島駅西(2)","","33.2617","130.26306","1058333-20","","0","1058333","",""
"1058334-20","","江頭西(2)","","33.26419","130.26262","1058334-20","","0","1058334","",""
"1058335-01","","市営江頭団地前(2)","","33.26491","130.26099","1058335-01","","0","1058335","",""
"1058336-10","","クレオパーク鍋島北(1)","","33.26663","130.25948","1058336-10","","0","1058336","",""
"1058337-10","","クレオパーク鍋島(1)","","33.26495","130.25958","1058337-10","","0","1058337","",""
"1058335-00","","市営江頭団地前(1)","","33.2650488","130.2615934","1058335-00","","0","1058335","",""
"1058334-10","","江頭西(1)","","33.26382","130.26279","1058334-10","","0","1058334","",""
"1058333-10","","鍋島駅西(1)","","33.26146","130.26323","1058333-10","","0","1058333","",""
"1058332-10","","鍋島駅南(1)","","33.25586","130.26553","1058332-10","","0","1058332","",""
"1058331-10","","新栄小西(1)","","33.25609","130.26994","1058331-10","","0","1058331","",""
"1058330-10","","新栄小前(1)","","33.2563","130.27626","1058330-10","","0","1058330","",""
"1058329-10","","北高前(1)","","33.25665","130.27917","1058329-10","","0","1058329","",""
"1058328-10","","中折(1)","","33.25737","130.28227","1058328-10","","0","1058328","",""
"1058327-10","","佐賀工業高校前(1)","","33.25796","130.28415","1058327-10","","0","1058327","",""
"1058326-10","","多布施橋(1)","","33.25856","130.28625","1058326-10","","0","1058326","",""
"1058325-10","","多布施(1)","","33.25889","130.28908","1058325-10","","0","1058325","",""
"1058324-10","","どんどんどんの森前(1)","","33.25909","130.29076","1058324-10","","0","1058324","",""
"1024168-01","","どんどんどんの森東(1)","","33.26216","130.29324","1024168-01","","0","1024168","",""
"1030219-04","","堀江通(4)","","33.26297","130.29329","1030219-04","","0","1030219","",""
"1030218-03","","佐賀駅北口(3)","","33.26462","130.295976","1030218-03","","0","1030218","",""
"1002008-10","","佐賀県庁前(1)","","33.251331","130.300168","1002008-10","","0","1002008","",""
"1002007-10","","中の小路(1)","","33.253821","130.299857","1002007-10","","0","1002007","",""
"1002006-10","","白山(1)","","33.254817","130.299688","1002006-10","","0","1002006","",""
"1002005-10","","唐人町(1)","","33.259143","130.298909","1002005-10","","0","1002005","",""
"1002004-10","","駅南本町(1)","","33.260865","130.298501","1002004-10","","0","1002004","",""
"1002003-20","","市役所前(2)","","33.263645","130.300045","1002003-20","","0","1002003","",""
"1002009-20","","佐嘉神社前(2)","","33.251064","130.30207","1002009-20","","0","1002009","",""
"1003021-00","","佐賀女子短大・高校前","","33.24626","130.28627","1003021-00","","0","1003021","",""
"1003020-10","","旭学園通り南(1)","","33.24424","130.28656","1003020-10","","0","1003020","",""
"1003019-10","","佐賀大学西(1)","","33.24448","130.28828","1003019-10","","0","1003019","",""
"1003018-01","","佐賀大学前(1)","","33.2456","130.29308","1003018-01","","0","1003018","",""
"1003017-10","","与賀町(1)","","33.24912","130.2925","1003017-10","","0","1003017","",""
"1003013-10","","辻の堂(1)","","33.250118","130.293428","1003013-10","","0","1003013","",""
"1003012-00","","佐賀県警本部前","","33.250695","130.298559","1003012-00","","0","1003012","",""
"1003011-00","","佐賀県警本部前","","33.250532","130.298565","1003011-00","","0","1003011","",""
"1003013-20","","辻の堂(2)","","33.250109","130.294796","1003013-20","","0","1003013","",""
"1003017-20","","与賀町(2)","","33.2481","130.29295","1003017-20","","0","1003017","",""
"1003018-03","","佐賀大学前(3)","","33.24476","130.29268","1003018-03","","0","1003018","",""
"1003019-20","","佐賀大学西(2)","","33.24455","130.28891","1003019-20","","0","1003019","",""
"1003020-20","","旭学園通り南(2)","","33.24419","130.28682","1003020-20","","0","1003020","",""
"1006033-10","","サガテレビ前(1)","","33.24704","130.3008","1006033-10","","0","1006033","",""
"1006032-10","","こころざしのもり(1)","","33.24837","130.30051","1006032-10","","0","1006032","",""
"1001002-02","","佐賀駅バスセンター 2番のりば","","33.26445","130.29951","1001002-02","","0","1001002","",""
"1032251-20","","藤木(2)","","33.27032","130.30075","1032251-20","","0","1032251","",""
"1032252-20","","致遠館前(2)","","33.27206","130.30034","1032252-20","","0","1032252","",""
"1032253-20","","佐賀北警察署前(2)","","33.27436","130.29971","1032253-20","","0","1032253","",""
"1032254-20","","市文化会館東(2)","","33.27786","130.29878","1032254-20","","0","1032254","",""
"1032255-00","","東高木","","33.28245","130.2984","1032255-00","","0","1032255","",""
"1032256-20","","寄人(2)","","33.28611","130.29788","1032256-20","","0","1032256","",""
"1032257-20","","城北団地(2)","","33.28786","130.29782","1032257-20","","0","1032257","",""
"1032258-00","","二俣","","33.29016","130.29794","1032258-00","","0","1032258","",""
"1032261-20","","グラスコート佐賀(2)","","33.30038","130.29715","1032261-20","","0","1032261","",""
"1032262-20","","千布南(2)","","33.30606","130.29948","1032262-20","","0","1032262","",""
"1032263-20","","東千布(2)","","33.30748","130.30051","1032263-20","","0","1032263","",""
"1032264-00","","金立公民館前","","33.30748","130.30341","1032264-00","","0","1032264","",""
"1032263-10","","東千布(1)","","33.30773","130.3009","1032263-10","","0","1032263","",""
"1032262-10","","千布南(1)","","33.30611","130.29964","1032262-10","","0","1032262","",""
"1032261-10","","グラスコート佐賀(1)","","33.29991","130.29741","1032261-10","","0","1032261","",""
"1032257-10","","城北団地(1)","","33.28812","130.29796","1032257-10","","0","1032257","",""
"1032256-10","","寄人(1)","","33.28542","130.29799","1032256-10","","0","1032256","",""
"1032254-10","","市文化会館東(1)","","33.27874","130.29865","1032254-10","","0","1032254","",""
"1032253-10","","佐賀北警察署前(1)","","33.273463","130.300101","1032253-10","","0","1032253","",""
"1032252-10","","致遠館前(1)","","33.27199","130.30043","1032252-10","","0","1032252","",""
"1032251-10","","藤木(1)","","33.2699","130.30101","1032251-10","","0","1032251","",""
"1032259-20","","金立ケアセンター前(2)","","33.29759","130.29738","1032259-20","","0","1032259","",""
"1032260-10","","健康運動センター(1)","","33.29786","130.29366","1032260-10","","0","1032260","",""
"1032259-10","","金立ケアセンター前(1)","","33.29771","130.29739","1032259-10","","0","1032259","",""
"1003014-00","","与賀町西","","33.249783","130.291639","1003014-00","","0","1003014","",""
"1003015-20","","西田代(2)","","33.249142","130.287336","1003015-20","","0","1003015","",""
"1003016-20","","道祖元町(2)","","33.2475","130.28505","1003016-20","","0","1003016","",""
"1003016-10","","道祖元町(1)","","33.24747","130.28499","1003016-10","","0","1003016","",""
"1003015-10","","西田代(1)","","33.24941","130.288058","1003015-10","","0","1003015","",""
"1011035-20","","市役所南(2)","","33.262594","130.30124","1011035-20","","0","1011035","",""
"1011036-20","","戸上電機前(2)","","33.261911","130.303661","1011036-20","","0","1011036","",""
"1011037-20","","大財町(2)","","33.257961","130.304731","1011037-20","","0","1011037","",""
"1028189-20","","サンテ溝上病院前(2)","","33.25698","130.30414","1028189-20","","0","1028189","",""
"1028190-20","","エスプラッツ前(2)","","33.254604","130.302427","1028190-20","","0","1028190","",""
"1011039-02","","片田江(2)[片田江東]","","33.251578","130.306742","1011039-02","","0","1011039","",""
"1028191-20","","材木橋(2)","","33.25187","130.308666","1028191-20","","0","1028191","",""
"1028192-20","","東佐賀(2)","","33.25195","130.31303","1028192-20","","0","1028192","",""
"1028193-10","","東田代(1)","","33.24865","130.31372","1028193-10","","0","1028193","",""
"1028194-20","","今宿町(2)","","33.24784","130.31554","1028194-20","","0","1028194","",""
"1028195-20","","枝吉(2)","","33.24773","130.31902","1028195-20","","0","1028195","",""
"1028196-20","","牛島下(2)","","33.24994","130.32187","1028196-20","","0","1028196","",""
"2015194-10","","高尾(1)","","33.25331","130.32291","2015194-10","","0","2015194","",""
"1028198-20","","老人センター前(2)","","33.25395","130.32541","1028198-20","","0","1028198","",""
"1028199-20","","巨勢公民館前(2)","","33.25498","130.32817","1028199-20","","0","1028199","",""
"1028200-10","","道崎(1)","","33.257638","130.336628","1028200-10","","0","1028200","",""
"1028199-10","","巨勢公民館前(1)","","33.25477","130.32823","1028199-10","","0","1028199","",""
"1028198-10","","老人センター前(1)","","33.25391","130.32568","1028198-10","","0","1028198","",""
"2015194-20","","高尾(2)","","33.25318","130.32303","2015194-20","","0","2015194","",""
"1028196-10","","牛島下(1)","","33.24995","130.32204","1028196-10","","0","1028196","",""
"1028195-10","","枝吉(1)","","33.24761","130.319","1028195-10","","0","1028195","",""
"1028194-10","","今宿町(1)","","33.24774","130.31575","1028194-10","","0","1028194","",""
"1028193-20","","東田代(2)","","33.24858","130.31358","1028193-20","","0","1028193","",""
"1028192-10","","東佐賀(1)","","33.25187","130.31293","1028192-10","","0","1028192","",""
"1028191-10","","材木橋(1)","","33.251942","130.309847","1028191-10","","0","1028191","",""
"1011039-03","","片田江(3)[片田江東]","","33.251478","130.306743","1011039-03","","0","1011039","",""
"1002009-10","","佐嘉神社前(1)","","33.251077","130.303443","1002009-10","","0","1002009","",""
"1028190-10","","エスプラッツ前(1)","","33.254698","130.302336","1028190-10","","0","1028190","",""
"1028189-10","","サンテ溝上病院前(1)","","33.25693","130.30367","1028189-10","","0","1028189","",""
"1011037-10","","大財町(1)","","33.257996","130.304587","1011037-10","","0","1011037","",""
"1011036-10","","戸上電機前(1)","","33.261887","130.303577","1011036-10","","0","1011036","",""
"1011035-10","","市役所南(1)","","33.262689","130.302003","1011035-10","","0","1011035","",""
"1001002-07","","佐賀駅バスセンター 7番のりば","","33.26465","130.29899","1001002-07","","0","1001002","",""
"1056303-20","","大財五丁目(2)","","33.26181","130.30847","1056303-20","","0","1056303","",""
"1056304-20","","大財六丁目(2)","","33.26247","130.31151","1056304-20","","0","1056304","",""
"1056305-20","","下村河畔(2)","","33.26328","130.31578","1056305-20","","0","1056305","",""
"1060346-20","","佐賀中部病院前(2)","","33.26377","130.31906","1060346-20","","0","1060346","",""
"1060347-02","","修理田(2)","","33.26438","130.32227","1060347-02","","0","1060347","",""
"1060348-20","","中牟田(2)","","33.26637","130.32748","1060348-20","","0","1060348","",""
"1060349-20","","瓦町南(2)","","33.2695","130.33086","1060349-20","","0","1060349","",""
"1060350-20","","瓦町(2)","","33.27159","130.33316","1060350-20","","0","1060350","",""
"1060351-20","","堀立(2)","","33.27503","130.33688","1060351-20","","0","1060351","",""
"1060352-20","","堀立東(2)","","33.27743","130.33842","1060352-20","","0","1060352","",""
"1060353-00","","外野","","33.28102","130.33696","1060353-00","","0","1060353","",""
"1060354-00","","伊賀屋橋","","33.28399","130.33578","1060354-00","","0","1060354","",""
"1060355-20","","伊賀屋(2)","","33.28799","130.33485","1060355-20","","0","1060355","",""
"1060356-00","","中野吉","","33.29118","130.33501","1060356-00","","0","1060356","",""
"1060357-00","","和泉野橋","","33.29678","130.33365","1060357-00","","0","1060357","",""
"1060358-20","","折地(2)","","33.30191","130.33145","1060358-20","","0","1060358","",""
"1060359-20","","下和泉(2)","","33.30361","130.33031","1060359-20","","0","1060359","",""
"1060360-00","","上揚","","33.30836","130.32828","1060360-00","","0","1060360","",""
"1060361-20","","久保泉工業団地東(2)","","33.31077","130.32704","1060361-20","","0","1060361","",""
"1060362-20","","上和泉(2)","","33.31633","130.32631","1060362-20","","0","1060362","",""
"1060363-20","","久保泉小学校前(2)","","33.32163","130.32657","1060363-20","","0","1060363","",""
"1060364-20","","川久保(2)","","33.32463","130.32684","1060364-20","","0","1060364","",""
"1060365-20","","川久保交差点北(2)","","33.32628","130.32701","1060365-20","","0","1060365","",""
"1060366-00","","川久保中","","33.328362","130.327396","1060366-00","","0","1060366","",""
"1060367-00","","上分公民館前","","33.33195","130.32761","1060367-00","","0","1060367","",""
"1060368-00","","勝宿神社","","33.33578","130.32718","1060368-00","","0","1060368","",""
"1060369-00","","清友病院前","","33.34","130.32584","1060369-00","","0","1060369","",""
"1060365-10","","川久保交差点北(1)","","33.32624","130.32716","1060365-10","","0","1060365","",""
"1060364-10","","川久保(1)","","33.32495","130.32701","1060364-10","","0","1060364","",""
"1060363-10","","久保泉小学校前(1)","","33.3215","130.32668","1060363-10","","0","1060363","",""
"1060362-10","","上和泉(1)","","33.31714","130.32651","1060362-10","","0","1060362","",""
"1060361-10","","久保泉工業団地東(1)","","33.31018","130.32747","1060361-10","","0","1060361","",""
"1060359-10","","下和泉(1)","","33.30502","130.3298","1060359-10","","0","1060359","",""
"1060358-10","","折地(1)","","33.30179","130.3317","1060358-10","","0","1060358","",""
"1060355-10","","伊賀屋(1)","","33.28815","130.33488","1060355-10","","0","1060355","",""
"1060352-10","","堀立東(1)","","33.27746","130.33861","1060352-10","","0","1060352","",""
"1060351-10","","堀立(1)","","33.27502","130.33734","1060351-10","","0","1060351","",""
"1060350-10","","瓦町(1)","","33.27224","130.334","1060350-10","","0","1060350","",""
"1060349-10","","瓦町南(1)","","33.26955","130.33107","1060349-10","","0","1060349","",""
"1060348-10","","中牟田(1)","","33.26669","130.32797","1060348-10","","0","1060348","",""
"1060347-01","","修理田(1)","","33.26431","130.32245","1060347-01","","0","1060347","",""
"1060346-10","","佐賀中部病院前(1)","","33.26375","130.31918","1060346-10","","0","1060346","",""
"1056305-10","","下村河畔(1)","","33.26313","130.31523","1056305-10","","0","1056305","",""
"1056304-10","","大財六丁目(1)","","33.26221","130.31102","1056304-10","","0","1056304","",""
"1056303-10","","大財五丁目(1)","","33.26163","130.30818","1056303-10","","0","1056303","",""
"1050278-20","","神野公民館前(2)","","33.26372","130.29018","1050278-20","","0","1050278","",""
"1050279-20","","昭和橋(2)","","33.26288","130.28442","1050279-20","","0","1050279","",""
"1050280-20","","神野公園(2)","","33.2647","130.2818","1050280-20","","0","1050280","",""
"1050281-20","","八戸溝郵便局前(2)","","33.26477","130.27794","1050281-20","","0","1050281","",""
"1050282-20","","鍋島団地(2)","","33.266","130.27638","1050282-20","","0","1050282","",""
"1050283-20","","鍋島新村(2)","","33.26877","130.27585","1050283-20","","0","1050283","",""
"1050284-20","","ＪＡ佐賀市せいぶ支所前(2)","","33.2719","130.27539","1050284-20","","0","1050284","",""
"1050285-20","","鍋島小学校前(2)","","33.27338","130.27078","1050285-20","","0","1050285","",""
"1050286-20","","鍋島一丁目(2)","","33.2757","130.2706","1050286-20","","0","1050286","",""
"1050287-20","","津留(2)","","33.27883","130.26991","1050287-20","","0","1050287","",""
"1050295-20","","医学部入口(2)","","33.28187","130.26909","1050295-20","","0","1050295","",""
"1050296-00","","佐賀大学病院","","33.2835","130.26709","1050296-00","","0","1050296","",""
"1050295-10","","医学部入口(1)","","33.28265","130.26884","1050295-10","","0","1050295","",""
"1050287-10","","津留(1)","","33.27949","130.26993","1050287-10","","0","1050287","",""
"1050286-10","","鍋島一丁目(1)","","33.2756","130.27065","1050286-10","","0","1050286","",""
"1050285-10","","鍋島小学校前(1)","","33.27367","130.2709","1050285-10","","0","1050285","",""
"1050284-10","","ＪＡ佐賀市せいぶ支所前(1)","","33.27179","130.27553","1050284-10","","0","1050284","",""
"1050283-10","","鍋島新村(1)","","33.26885","130.27589","1050283-10","","0","1050283","",""
"1050282-10","","鍋島団地(1)","","33.26589","130.27649","1050282-10","","0","1050282","",""
"1050281-10","","八戸溝郵便局前(1)","","33.26486","130.27818","1050281-10","","0","1050281","",""
"1050280-10","","神野公園(1)","","33.26483","130.28218","1050280-10","","0","1050280","",""
"1050279-10","","昭和橋(1)","","33.263","130.2841","1050279-10","","0","1050279","",""
"1050278-10","","神野公民館前(1)","","33.26375","130.28925","1050278-10","","0","1050278","",""
"1030219-03","","堀江通(3)","","33.26395","130.29208","1030219-03","","0","1030219","",""
"1050288-20","","鍋島シェスト前(2)","","33.28006","130.26875","1050288-20","","0","1050288","",""
"1050289-20","","鍋島西団地(2)","","33.27979","130.2648","1050289-20","","0","1050289","",""
"1050290-20","","医学部西(2)","","33.2834","130.26315","1050290-20","","0","1050290","",""
"1050291-20","","鍋島五丁目(2)","","33.28678","130.26314","1050291-20","","0","1050291","",""
"1050292-10","","鍋島本村(1)","","33.28828","130.26389","1050292-10","","0","1050292","",""
"1050293-20","","鍋島六丁目(2)","","33.2884","130.26564","1050293-20","","0","1050293","",""
"1050294-20","","医学部北(2)","","33.28627","130.26839","1050294-20","","0","1050294","",""
"1050294-10","","医学部北(1)","","33.28671","130.26825","1050294-10","","0","1050294","",""
"1050293-10","","鍋島六丁目(1)","","33.28833","130.2661","1050293-10","","0","1050293","",""
"1050292-20","","鍋島本村(2)","","33.28822","130.26437","1050292-20","","0","1050292","",""
"1050291-10","","鍋島五丁目(1)","","33.286594","130.263202","1050291-10","","0","1050291","",""
"1050290-10","","医学部西(1)","","33.28292","130.26328","1050290-10","","0","1050290","",""
"1050289-10","","鍋島西団地(1)","","33.27991","130.26523","1050289-10","","0","1050289","",""
"1050288-10","","鍋島シェスト前(1)","","33.28013","130.26846","1050288-10","","0","1050288","",""
"1011039-06","","片田江(6)[片田江西]","","33.251407","130.305366","1011039-06","","0","1011039","",""
"1020092-00","","水ヶ江大通り","","33.24954","130.30637","1020092-00","","0","1020092","",""
"1020093-10","","大隈重信記念館入口(1)","","33.24824","130.306808","1020093-10","","0","1020093","",""
"1020094-20","","竜校前(2)","","33.24588","130.30806","1020094-20","","0","1020094","",""
"1020095-10","","横小路(1)","","33.244397","130.308375","1020095-10","","0","1020095","",""
"1020096-01","","大崎(1)","","33.24174","130.31029","1020096-01","","0","1020096","",""
"1020097-20","","自動車学校前(2)","","33.23967","130.31569","1020097-20","","0","1020097","",""
"1020098-20","","南佐賀(2)","","33.23875","130.31766","1020098-20","","0","1020098","",""
"1020099-20","","東高校前(2)","","33.23731","130.32088","1020099-20","","0","1020099","",""
"1024156-20","","博物館前(2)","","33.24509","130.3015","1024156-20","","0","1024156","",""
"1025170-20","","袋入口(2)","","33.23743","130.30188","1025170-20","","0","1025170","",""
"1064370-20","","東与賀イオン前(2)","","33.22169","130.3064","1064370-20","","0","1064370","",""
"1064371-20","","小々森北(2)","","33.19732","130.30363","1064371-20","","0","1064371","",""
"1006035-01","","佐賀駐屯地(2)","","33.156292","130.299443","1006035-01","","0","1006035","",""
"1001001-20","","佐賀空港(2)","","33.15367","130.30376","1001001-20","","0","1001001","",""
"1006035-02","","佐賀駐屯地(1)","","33.156164","130.299446","1006035-02","","0","1006035","",""
"1064371-10","","小々森北(1)","","33.19731","130.30348","1064371-10","","0","1064371","",""
"1064370-10","","東与賀イオン前(1)","","33.22163","130.3062","1064370-10","","0","1064370","",""
"1025170-10","","袋入口(1)","","33.23769","130.30173","1025170-10","","0","1025170","",""
"1024156-10","","博物館前(1)","","33.24504","130.30141","1024156-10","","0","1024156","",""
"1001001-10","","佐賀空港(1)","","33.15378","130.30281","1001001-10","","0","1001001","",""
"1056306-20","","佐賀中部病院西(2)","","33.264","130.31702","1056306-20","","0","1056306","",""
"1056307-20","","東中野(2)","","33.26653","130.31575","1056307-20","","0","1056307","",""
"1056308-20","","兵庫小学校西(2)","","33.271512","130.317634","1056308-20","","0","1056308","",""
"1056309-00","","下渕南","","33.2736","130.31734","1056309-00","","0","1056309","",""
"1056310-00","","下渕","","33.27771","130.31651","1056310-00","","0","1056310","",""
"1056311-00","","妙常寺前","","33.28048","130.31544","1056311-00","","0","1056311","",""
"1056312-00","","うえむら病院前","","33.28223","130.31462","1056312-00","","0","1056312","",""
"1056313-20","","兵庫団地前(2)","","33.28438","130.31471","1056313-20","","0","1056313","",""
"1056314-00","","初町","","33.28874","130.31458","1056314-00","","0","1056314","",""
"1056315-00","","東渕","","33.29063","130.31419","1056315-00","","0","1056315","",""
"1056316-00","","渕頭","","33.29187","130.31374","1056316-00","","0","1056316","",""
"1056317-20","","かささぎの里前(2)","","33.30112","130.31317","1056317-20","","0","1056317","",""
"1056318-20","","徳永(2)","","33.30288","130.31419","1056318-20","","0","1056318","",""
"0000003-01","","きりんむら(2)","","33.30484","130.315321","0000003-01","","0","0000003","",""
"1056319-20","","白鬚神社前(2)","","33.30373","130.31888","1056319-20","","0","1056319","",""
"1056320-20","","村徳永(2)","","33.30809","130.31906","1056320-20","","0","1056320","",""
"1056321-20","","工業団地事務所前(2)","","33.31185","130.31859","1056321-20","","0","1056321","",""
"1056322-20","","久保泉工業団地西(2)","","33.31261","130.31964","1056322-20","","0","1056322","",""
"1056323-00","","久保泉工業団地","","33.31266","130.32291","1056323-00","","0","1056323","",""
"1056322-10","","久保泉工業団地西(1)","","33.31247","130.31967","1056322-10","","0","1056322","",""
"1056321-10","","工業団地事務所前(1)","","33.3112","130.31876","1056321-10","","0","1056321","",""
"1056320-10","","村徳永(1)","","33.30783","130.31924","1056320-10","","0","1056320","",""
"1056319-10","","白鬚神社前(1)","","33.30376","130.31834","1056319-10","","0","1056319","",""
"0000003-02","","きりんむら(1)","","33.30479","130.315401","0000003-02","","0","0000003","",""
"1056318-10","","徳永(1)","","33.30281","130.31404","1056318-10","","0","1056318","",""
"1056317-10","","かささぎの里前(1)","","33.30116","130.31329","1056317-10","","0","1056317","",""
"1056313-10","","兵庫団地前(1)","","33.28435","130.31482","1056313-10","","0","1056313","",""
"1056308-10","","兵庫小学校西(1)","","33.271545","130.317757","1056308-10","","0","1056308","",""
"1056307-10","","東中野(1)","","33.26635","130.31604","1056307-10","","0","1056307","",""
"1056306-10","","佐賀中部病院西(1)","","33.26427","130.31714","1056306-10","","0","1056306","",""
"1030218-02","","佐賀駅北口(2)","","33.26554","130.29716","1030218-02","","0","1030218","",""
"1036265-20","","九電工前(2)","","33.26682","130.29521","1036265-20","","0","1036265","",""
"1036266-20","","電通通り(2)","","33.26617","130.29106","1036266-20","","0","1036266","",""
"1036267-20","","真生幼稚園前(2)","","33.26627","130.28728","1036267-20","","0","1036267","",""
"1036268-20","","神野西四丁目(2)","","33.26844","130.28697","1036268-20","","0","1036268","",""
"1051297-20","","西九大神園南(2)","","33.26943","130.28459","1051297-20","","0","1051297","",""
"1051298-20","","常盤団地入口(2)","","33.2689","130.28163","1051298-20","","0","1051298","",""
"1051299-20","","鍋島東団地(2)","","33.26871","130.28021","1051299-20","","0","1051299","",""
"1051300-20","","開成三丁目(2)","","33.26971","130.27791","1051300-20","","0","1051300","",""
"1051301-20","","アルタ開成店東(2)","","33.2716","130.27756","1051301-20","","0","1051301","",""
"1051302-10","","卸センター前(1)","","33.27259","130.27696","1051302-10","","0","1051302","",""
"1051301-10","","アルタ開成店東(1)","","33.27168","130.27766","1051301-10","","0","1051301","",""
"1051300-10","","開成三丁目(1)","","33.26984","130.27797","1051300-10","","0","1051300","",""
"1051299-10","","鍋島東団地(1)","","33.26874","130.28003","1051299-10","","0","1051299","",""
"1051298-10","","常盤団地入口(1)","","33.26897","130.281279","1051298-10","","0","1051298","",""
"1051297-10","","西九大神園南(1)","","33.26961","130.28505","1051297-10","","0","1051297","",""
"1036268-10","","神野西四丁目(1)","","33.26825","130.28706","1036268-10","","0","1036268","",""
"1036267-10","","真生幼稚園前(1)","","33.26582","130.28799","1036267-10","","0","1036267","",""
"1036266-10","","電通通り(1)","","33.26625","130.29097","1036266-10","","0","1036266","",""
"1036265-10","","九電工前(1)","","33.26694","130.29567","1036265-10","","0","1036265","",""
"1030218-01","","佐賀駅北口(1)","","33.26532","130.29736","1030218-01","","0","1030218","",""
"1001002-05","","佐賀駅バスセンター 5番のりば","","33.264317","130.299013","1001002-05","","0","1001002","",""
"1018074-20","","長瀬町(2)","","33.247879","130.282472","1018074-20","","0","1018074","",""
"1018075-20","","地蔵前(2)","","33.246404","130.27735","1018075-20","","0","1018075","",""
"1018076-20","","普門寺(2)","","33.245706","130.274086","1018076-20","","0","1018076","",""
"1018077-20","","高橋(2)","","33.245314","130.272213","1018077-20","","0","1018077","",""
"1018078-20","","扇町東(2)","","33.244579","130.268005","1018078-20","","0","1018078","",""
"1018079-00","","扇町","","33.243948","130.263659","1018079-00","","0","1018079","",""
"1018080-01","","嘉瀬元町(1)","","33.243206","130.258568","1018080-01","","0","1018080","",""
"1027184-20","","十五(2)","","33.23542","130.25787","1027184-20","","0","1027184","",""
"1027185-20","","十五南(2)","","33.22996","130.25766","1027185-20","","0","1027185","",""
"1027186-20","","嘉瀬新町(2)","","33.22515","130.25755","1027186-20","","0","1027186","",""
"1027187-20","","新町中央(2)","","33.22192","130.25749","1027187-20","","0","1027187","",""
"1011053-02","","本庄江橋(2)","","33.21973","130.25766","1011053-02","","0","1011053","",""
"1011054-20","","久保田橋(2)","","33.21989","130.24843","1011054-20","","0","1011054","",""
"1011055-20","","久富(2)","","33.21999","130.24654","1011055-20","","0","1011055","",""
"1011056-20","","くぼた特産物直売所前(2)","","33.21982","130.24345","1011056-20","","0","1011056","",""
"1018085-20","","元小路(2)","","33.24189","130.23767","1018085-20","","0","1018085","",""
"1018086-20","","中副(2)","","33.23952","130.23799","1018086-20","","0","1018086","",""
"1018087-20","","思斉館前(2)","","33.23375","130.23943","1018087-20","","0","1018087","",""
"1001402-01","","久保田支所前（1）","","33.232076","130.239873","1001402-01","","0","1001402","",""
"1018088-00","","横江","","33.22612","130.24089","1018088-00","","0","1018088","",""
"1018089-20","","久富西(2)","","33.22044","130.24173","1018089-20","","0","1018089","",""
"1011056-10","","くぼた特産物直売所前(1)","","33.22001","130.24435","1011056-10","","0","1011056","",""
"1011055-10","","久富(1)","","33.22015","130.2466","1011055-10","","0","1011055","",""
"1011054-10","","久保田橋(1)","","33.21992","130.24913","1011054-10","","0","1011054","",""
"1011053-01","","本庄江橋(1)","","33.21976","130.25752","1011053-01","","0","1011053","",""
"1027187-10","","新町中央(1)","","33.22211","130.25745","1027187-10","","0","1027187","",""
"1027186-10","","嘉瀬新町(1)","","33.22516","130.25746","1027186-10","","0","1027186","",""
"1027185-10","","十五南(1)","","33.23038","130.25763","1027185-10","","0","1027185","",""
"1027184-10","","十五(1)","","33.23582","130.25787","1027184-10","","0","1027184","",""
"1018080-02","","嘉瀬元町(2)","","33.24265","130.25797","1018080-02","","0","1018080","",""
"1018078-10","","扇町東(1)","","33.244415","130.266433","1018078-10","","0","1018078","",""
"1018077-10","","高橋(1)","","33.245147","130.270842","1018077-10","","0","1018077","",""
"1018076-10","","普門寺(1)","","33.245655","130.273292","1018076-10","","0","1018076","",""
"1018075-10","","地蔵前(1)","","33.246535","130.277491","1018075-10","","0","1018075","",""
"1018074-10","","長瀬町(1)","","33.248191","130.283375","1018074-10","","0","1018074","",""
"1019091-00","","医療センター好生館","","33.241555","130.267985","1019091-00","","0","1019091","",""
"1018089-10","","久富西(1)","","33.22029","130.24165","1018089-10","","0","1018089","",""
"1001402-02","","久保田支所前（2）","","33.231926","130.239736","1001402-02","","0","1001402","",""
"1018087-10","","思斉館前(1)","","33.23378","130.23935","1018087-10","","0","1018087","",""
"1018086-10","","中副(1)","","33.23941","130.237836","1018086-10","","0","1018086","",""
"1018085-10","","元小路(1)","","33.24169","130.23752","1018085-10","","0","1018085","",""
"1024167-20","","成章中学校西(2)","","33.25834","130.29314","1024167-20","","0","1024167","",""
"1024167-10","","成章中学校西(1)","","33.25603","130.29285","1024167-10","","0","1024167","",""
"1024168-03","","どんどんどんの森東(3)","","33.26151","130.2939","1024168-03","","0","1024168","",""
"1024169-10","","駅南本町西(1)","","33.26164","130.29707","1024169-10","","0","1024169","",""
"1024169-20","","駅南本町西(2)","","33.26157","130.29732","1024169-20","","0","1024169","",""
"1024168-04","","どんどんどんの森東(4)","","33.26138","130.29376","1024168-04","","0","1024168","",""
"1024166-20","","護国神社前(2)","","33.25315","130.29355","1024166-20","","0","1024166","",""
"1003013-03","","辻の堂(３)","","33.251192","130.293963","1003013-03","","0","1003013","",""
"1024165-10","","平林胃腸科前(1)","","33.24385","130.27676","1024165-10","","0","1024165","",""
"1024164-10","","平松老人センター前(1)","","33.24168","130.27802","1024164-10","","0","1024164","",""
"1024163-10","","平松交差点東(1)","","33.24013","130.28218","1024163-10","","0","1024163","",""
"1024162-10","","高伝寺前(1)","","33.23997","130.28476","1024162-10","","0","1024162","",""
"1024161-10","","佐賀大学南(1)","","33.23956","130.29269","1024161-10","","0","1024161","",""
"1024160-10","","大井樋(1)","","33.23928","130.29607","1024160-10","","0","1024160","",""
"1024159-10","","鬼丸(1)","","33.23986","130.30209","1024159-10","","0","1024159","",""
"1024158-10","","中の館(1)","","33.24218","130.302","1024158-10","","0","1024158","",""
"1024157-10","","赤松小学校前(1)","","33.24397","130.3017","1024157-10","","0","1024157","",""
"1024157-20","","赤松小学校前(2)","","33.24311","130.30197","1024157-20","","0","1024157","",""
"1024158-20","","中の館(2)","","33.24207","130.30209","1024158-20","","0","1024158","",""
"1024159-20","","鬼丸(2)","","33.24008","130.30219","1024159-20","","0","1024159","",""
"1025171-00","","末次","","33.2343","130.30161","1025171-00","","0","1025171","",""
"1025172-20","","末次南(2)","","33.23069","130.30188","1025172-20","","0","1025172","",""
"1025173-00","","満穴","","33.22713","130.302088","1025173-00","","0","1025173","",""
"1025174-00","","中島","","33.22463","130.30246","1025174-00","","0","1025174","",""
"1025175-00","","立野北","","33.22261","130.30214","1025175-00","","0","1025175","",""
"1025176-00","","立野","","33.22041","130.30194","1025176-00","","0","1025176","",""
"1025177-00","","西船津","","33.21111","130.30115","1025177-00","","0","1025177","",""
"1025178-00","","佐房","","33.20796","130.29932","1025178-00","","0","1025178","",""
"1025179-00","","新村","","33.20406","130.29813","1025179-00","","0","1025179","",""
"1025180-00","","久町","","33.19907","130.29802","1025180-00","","0","1025180","",""
"1025181-00","","広江(1)","","33.19752","130.29768","1025181-00","","0","1025181","",""
"1025182-20","","小々森(2)","","33.19707","130.30527","1025182-20","","0","1025182","",""
"1025183-00","","南部消防署前","","33.19746","130.31117","1025183-00","","0","1025183","",""
"1023146-20","","小々森入口(2)","","33.19677","130.31479","1023146-20","","0","1023146","",""
"1023147-20","","鹿江団地東(2)","","33.19364","130.31528","1023147-20","","0","1023147","",""
"1023148-20","","咾分(2)","","33.19181","130.31648","1023148-20","","0","1023148","",""
"1023149-20","","川副支所前(2)","","33.19159","130.31924","1023149-20","","0","1023149","",""
"1023150-20","","犬井道(2)","","33.18955","130.32022","1023150-20","","0","1023150","",""
"1023151-20","","平田分(2)","","33.18934","130.32281","1023151-20","","0","1023151","",""
"1023152-10","","和崎(1)","","33.19007","130.32912","1023152-10","","0","1023152","",""
"1023151-10","","平田分(1)","","33.18931","130.32361","1023151-10","","0","1023151","",""
"1023150-10","","犬井道(1)","","33.19018","130.31938","1023150-10","","0","1023150","",""
"1023149-10","","川副支所前(1)","","33.19149","130.31918","1023149-10","","0","1023149","",""
"1023148-10","","咾分(1)","","33.19175","130.31609","1023148-10","","0","1023148","",""
"1023147-10","","鹿江団地東(1)","","33.19365","130.31517","1023147-10","","0","1023147","",""
"1023146-10","","小々森入口(1)","","33.19642","130.31476","1023146-10","","0","1023146","",""
"1025182-10","","小々森(1)","","33.19682","130.30466","1025182-10","","0","1025182","",""
"1025181-01","","広江(2)","","33.197401","130.297786","1025181-01","","0","1025181","",""
"1025174-02","","中島","","33.224605","130.302435","1025174-02","","0","1025174","",""
"1025172-10","","末次南(1)","","33.23127","130.30179","1025172-10","","0","1025172","",""
"1018081-20","","森林公園東(2)","","33.242372","130.251781","1018081-20","","0","1018081","",""
"1018082-20","","森林公園前(2)","","33.242569","130.249887","1018082-20","","0","1018082","",""
"1018083-20","","嘉瀬橋(2)","","33.247333","130.240695","1018083-20","","0","1018083","",""
"1018084-03","","徳万(3)","","33.24794","130.23764","1018084-03","","0","1018084","",""
"1018084-04","","徳万(4)","","33.2478","130.2375","1018084-04","","0","1018084","",""
"1018083-10","","嘉瀬橋(1)","","33.247541","130.24056","1018083-10","","0","1018083","",""
"1018082-10","","森林公園前(1)","","33.242911","130.249199","1018082-10","","0","1018082","",""
"1018081-10","","森林公園東(1)","","33.242462","130.251835","1018081-10","","0","1018081","",""
"1018080-03","","嘉瀬元町(3)","","33.242856","130.256616","1018080-03","","0","1018080","",""
"1020100-20","","千々岩(2)","","33.23599","130.32393","1020100-20","","0","1020100","",""
"1020101-20","","光法西(2)","","33.23381","130.32872","1020101-20","","0","1020101","",""
"1020102-20","","光法(2)","","33.23177","130.33336","1020102-20","","0","1020102","",""
"1020103-20","","山領北(2)","","33.23066","130.33591","1020103-20","","0","1020103","",""
"1020104-20","","山領(2)","","33.22819","130.34134","1020104-20","","0","1020104","",""
"1020105-20","","野町(2)","","33.22703","130.34399","1020105-20","","0","1020105","",""
"1020106-20","","小杭(2)","","33.22479","130.34917","1020106-20","","0","1020106","",""
"1020107-20","","諸富支所前(2)","","33.22287","130.3533","1020107-20","","0","1020107","",""
"1020108-20","","諸富橋(2)","","33.22293","130.36049","1020108-20","","0","1020108","",""
"1020109-20","","昇開橋前(2)","","33.21791","130.36084","1020109-20","","0","1020109","",""
"1020110-20","","石塚(2)","","33.21554","130.35638","1020110-20","","0","1020110","",""
"1020111-20","","浮盃(2)","","33.21407","130.35289","1020111-20","","0","1020111","",""
"1020112-20","","寺井橋(2)","","33.21359","130.347","1020112-20","","0","1020112","",""
"1020113-10","","上下角","","33.212837","130.34223","1020113-10","","0","1020113","",""
"1020114-20","","佐野・三重津歴史館入口(2)","","33.21267","130.33768","1020114-20","","0","1020114","",""
"1020115-20","","上早(2)","","33.21119","130.33548","1020115-20","","0","1020115","",""
"1020116-20","","中川副小学校前(2)","","33.20882","130.3354","1020116-20","","0","1020116","",""
"1020118-00","","早津江","","33.20546","130.3353","1020118-00","","0","1020118","",""
"1020117-00","","中早","","33.20673","130.33524","1020117-00","","0","1020117","",""
"1020116-10","","中川副小学校前(1)","","33.20877","130.33531","1020116-10","","0","1020116","",""
"1020115-10","","上早(1)","","33.21098","130.33537","1020115-10","","0","1020115","",""
"1020114-10","","佐野・三重津歴史館入口(1)","","33.2128","130.33769","1020114-10","","0","1020114","",""
"1020113-20","","上下角","","33.212929","130.342592","1020113-20","","0","1020113","",""
"1020112-10","","寺井橋(1)","","33.21371","130.34642","1020112-10","","0","1020112","",""
"1020111-10","","浮盃(1)","","33.21412","130.35271","1020111-10","","0","1020111","",""
"1020110-10","","石塚(1)","","33.21553","130.35622","1020110-10","","0","1020110","",""
"1020109-10","","昇開橋前(1)","","33.2184","130.36099","1020109-10","","0","1020109","",""
"1020108-10","","諸富橋(1)","","33.22254","130.36145","1020108-10","","0","1020108","",""
"1020107-10","","諸富支所前(1)","","33.22268","130.35353","1020107-10","","0","1020107","",""
"1020106-10","","小杭(1)","","33.22456","130.34917","1020106-10","","0","1020106","",""
"1020105-10","","野町(1)","","33.226517","130.344875","1020105-10","","0","1020105","",""
"1020104-10","","山領(1)","","33.2282","130.34114","1020104-10","","0","1020104","",""
"1020103-10","","山領北(1)","","33.23013","130.33691","1020103-10","","0","1020103","",""
"1020102-10","","光法(1)","","33.232664","130.33116","1020102-10","","0","1020102","",""
"1020101-10","","光法西(1)","","33.23423","130.32762","1020101-10","","0","1020101","",""
"1020100-10","","千々岩(1)","","33.2355","130.32481","1020100-10","","0","1020100","",""
"1020099-10","","東高校前(1)","","33.23755","130.32016","1020099-10","","0","1020099","",""
"1020098-10","","南佐賀(1)","","33.23907","130.31671","1020098-10","","0","1020098","",""
"1020097-10","","自動車学校前(1)","","33.24046","130.31364","1020097-10","","0","1020097","",""
"1020096-02","","大崎(2)","","33.24173","130.31017","1020096-02","","0","1020096","",""
"1020095-20","","横小路(2)","","33.24328","130.308509","1020095-20","","0","1020095","",""
"1020094-10","","竜校前(1)","","33.24611","130.30795","1020094-10","","0","1020094","",""
"1020093-20","","大隈重信記念館入口(2)","","33.248487","130.306658","1020093-20","","0","1020093","",""
"1011039-05","","片田江(5)[片田江西]","","33.251284","130.305234","1011039-05","","0","1011039","",""
"1011038-20","","呉服元町(2)","","33.25357","130.30567","1011038-20","","0","1011038","",""
"1011039-01","","片田江(1)[片田江北]","","33.251869","130.306039","1011039-01","","0","1011039","",""
"1003018-02","","佐賀大学前(2)","","33.24403","130.29375","1003018-02","","0","1003018","",""
"1012057-20","","佐賀大学東(2)","","33.24168","130.29431","1012057-20","","0","1012057","",""
"1012058-20","","なゆたの森病院前(2)","","33.23708","130.29425","1012058-20","","0","1012058","",""
"1012059-20","","本庄小学校前(2)","","33.23542","130.29381","1012059-20","","0","1012059","",""
"1012060-20","","本庄公民館前(2)","","33.23333","130.29384","1012060-20","","0","1012060","",""
"1012061-20","","鹿の子団地(2)","","33.23013","130.29398","1012061-20","","0","1012061","",""
"1012062-20","","鹿の子(2)","","33.22601","130.29424","1012062-20","","0","1012062","",""
"1012063-20","","鹿の子宮前(2)","","33.22184","130.29453","1012063-20","","0","1012063","",""
"1012064-20","","上古賀(2)","","33.2174","130.29291","1012064-20","","0","1012064","",""
"1012065-20","","下古賀(2)","","33.21346","130.29138","1012065-20","","0","1012065","",""
"1012066-20","","田中(2)","","33.211255","130.288168","1012066-20","","0","1012066","",""
"1012067-20","","東与賀支所前(2)","","33.20824","130.28726","1012067-20","","0","1012067","",""
"1012068-20","","東与賀郵便局前(2)","","33.2042","130.28619","1012068-20","","0","1012068","",""
"1012069-20","","作出(2)","","33.20152","130.28584","1012069-20","","0","1012069","",""
"1012070-20","","住吉(2)","","33.20119","130.27957","1012070-20","","0","1012070","",""
"1012071-20","","大野東(2)","","33.20237","130.27573","1012071-20","","0","1012071","",""
"1012072-20","","大野中(2)","","33.20281","130.27315","1012072-20","","0","1012072","",""
"1012073-00","","大野","","33.20308","130.27011","1012073-00","","0","1012073","",""
"1012072-10","","大野中(1)","","33.20282","130.27364","1012072-10","","0","1012072","",""
"1012071-10","","大野東(1)","","33.20226","130.27628","1012071-10","","0","1012071","",""
"1012070-10","","住吉(1)","","33.20123","130.2795","1012070-10","","0","1012070","",""
"1012069-10","","作出(1)","","33.20178","130.28583","1012069-10","","0","1012069","",""
"1012068-10","","東与賀郵便局前(1)","","33.20435","130.28616","1012068-10","","0","1012068","",""
"1012067-10","","東与賀支所前(1)","","33.20803","130.28725","1012067-10","","0","1012067","",""
"1012066-10","","田中(1)","","33.211582","130.288173","1012066-10","","0","1012066","",""
"1012065-10","","下古賀(1)","","33.21416","130.29161","1012065-10","","0","1012065","",""
"1012064-10","","上古賀(1)","","33.21756","130.29295","1012064-10","","0","1012064","",""
"1012063-10","","鹿の子宮前(1)","","33.22204","130.29453","1012063-10","","0","1012063","",""
"1012062-10","","鹿の子(1)","","33.22646","130.29414","1012062-10","","0","1012062","",""
"1012061-10","","鹿の子団地(1)","","33.22944","130.29401","1012061-10","","0","1012061","",""
"1012060-10","","本庄公民館前(1)","","33.23225","130.29376","1012060-10","","0","1012060","",""
"1012059-10","","本庄小学校前(1)","","33.23552","130.29362","1012059-10","","0","1012059","",""
"1012058-10","","なゆたの森病院前(1)","","33.23751","130.29411","1012058-10","","0","1012058","",""
"1012057-10","","佐賀大学東(1)","","33.24156","130.29396","1012057-10","","0","1012057","",""
"1011038-10","","呉服元町(1)","","33.254591","130.305372","1011038-10","","0","1011038","",""
"1020096-03","","大崎(3)","","33.24135","130.30984","1020096-03","","0","1020096","",""
"1023135-20","","袋住宅前(2)","","33.23883","130.31024","1023135-20","","0","1023135","",""
"1023136-20","","八田橋(2)","","33.23708","130.31035","1023136-20","","0","1023136","",""
"1023137-20","","八田宮前(2)","","33.23366","130.31172","1023137-20","","0","1023137","",""
"1023138-20","","三角茶屋(2)","","33.2305","130.31232","1023138-20","","0","1023138","",""
"1023139-20","","南里(2)","","33.22661","130.31334","1023139-20","","0","1023139","",""
"1023140-20","","農業大学校前(2)","","33.22302","130.31348","1023140-20","","0","1023140","",""
"1023141-20","","南里南(2)","","33.22025","130.31345","1023141-20","","0","1023141","",""
"1023142-20","","坂井(2)","","33.21429","130.31332","1023142-20","","0","1023142","",""
"1023143-20","","西古賀(2)","","33.21078","130.31332","1023143-20","","0","1023143","",""
"1023144-20","","西川副小学校前(2)","","33.2074","130.31363","1023144-20","","0","1023144","",""
"1023145-20","","鋤崎(2)","","33.2024","130.31416","1023145-20","","0","1023145","",""
"1023153-20","","中津(2)","","33.1898","130.33124","1023153-20","","0","1023153","",""
"1023154-20","","上の小路(2)","","33.18279","130.34258","1023154-20","","0","1023154","",""
"1023155-00","","大詫間","","33.17902","130.34241","1023155-00","","0","1023155","",""
"1023154-10","","上の小路(1)","","33.18272","130.34238","1023154-10","","0","1023154","",""
"1023153-10","","中津(1)","","33.18962","130.33096","1023153-10","","0","1023153","",""
"1023145-10","","鋤崎(1)","","33.20293","130.31403","1023145-10","","0","1023145","",""
"1023144-10","","西川副小学校前(1)","","33.20747","130.31349","1023144-10","","0","1023144","",""
"1023143-10","","西古賀(1)","","33.2109","130.31322","1023143-10","","0","1023143","",""
"1023142-10","","坂井(1)","","33.21497","130.31325","1023142-10","","0","1023142","",""
"1023141-10","","南里南(1)","","33.22022","130.31332","1023141-10","","0","1023141","",""
"1023140-10","","農業大学校前(1)","","33.22356","130.31334","1023140-10","","0","1023140","",""
"1023139-10","","南里(1)","","33.22548","130.31334","1023139-10","","0","1023139","",""
"1023138-10","","三角茶屋(1)","","33.23002","130.31219","1023138-10","","0","1023138","",""
"1023137-10","","八田宮前(1)","","33.23359","130.31168","1023137-10","","0","1023137","",""
"1023136-10","","八田橋(1)","","33.23717","130.31021","1023136-10","","0","1023136","",""
"1023135-10","","袋住宅前(1)","","33.23871","130.3101","1023135-10","","0","1023135","",""
"1020096-04","","大崎(4)","","33.24031","130.3098","1020096-04","","0","1020096","",""
"1036269-20","","西九大神園前(2)","","33.27185","130.28648","1036269-20","","0","1036269","",""
"1036270-20","","若楠小学校前(2)","","33.27591","130.28592","1036270-20","","0","1036270","",""
"1036271-20","","運輸支局西(2)","","33.27896","130.28476","1036271-20","","0","1036271","",""
"1036272-20","","北陵高校前(2)","","33.28135","130.28403","1036272-20","","0","1036272","",""
"1036273-20","","市営高木団地(2)","","33.28335","130.28377","1036273-20","","0","1036273","",""
"1036274-20","","高木瀬西四丁目(2)","","33.28527","130.28433","1036274-20","","0","1036274","",""
"1036275-20","","高木瀬西五丁目(2)","","33.28577","130.28735","1036275-20","","0","1036275","",""
"1030227-03","","高木瀬公民館前(3)","","33.28669","130.28943","1030227-03","","0","1030227","",""
"1030228-20","","高木瀬工場団地(2)","","33.28812","130.28841","1030228-20","","0","1030228","",""
"1036276-04","","アルタ高木瀬店前(4)","","33.29217","130.28552","1036276-04","","0","1036276","",""
"1036277-00","","佐賀記念病院","","33.29309","130.28262","1036277-00","","0","1036277","",""
"1036276-03","","アルタ高木瀬店前(3)","","33.29207","130.28584","1036276-03","","0","1036276","",""
"1030228-10","","高木瀬工場団地(1)","","33.28853","130.2883","1030228-10","","0","1030228","",""
"1030227-02","","高木瀬公民館(2)","","33.285929","130.28889","1030227-02","","0","1030227","",""
"1036275-10","","高木瀬西五丁目(1)","","33.28566","130.28714","1036275-10","","0","1036275","",""
"1036274-10","","高木瀬西四丁目(1)","","33.28524","130.28456","1036274-10","","0","1036274","",""
"1036273-10","","市営高木団地(1)","","33.283418","130.283884","1036273-10","","0","1036273","",""
"1036272-10","","北陵高校前(1)","","33.28119","130.28415","1036272-10","","0","1036272","",""
"1036271-10","","運輸支局西(1)","","33.27897","130.28485","1036271-10","","0","1036271","",""
"1036270-10","","若楠小学校前(1)","","33.2752","130.28618","1036270-10","","0","1036270","",""
"1036269-10","","西九大神園前(1)","","33.27205","130.28662","1036269-10","","0","1036269","",""
"1029201-20","","矢ヶ部医院前(2)","","33.2478","130.32346","1029201-20","","0","1029201","",""
"1029202-20","","江上町(2)","","33.24789","130.32646","1029202-20","","0","1029202","",""
"1029203-00","","江上町東","","33.24777","130.32986","1029203-00","","0","1029203","",""
"1029204-00","","増田口","","33.2471","130.33307","1029204-00","","0","1029204","",""
"1029205-00","","犬尾","","33.24683","130.33946","1029205-00","","0","1029205","",""
"1029206-20","","東西(2)","","33.24828","130.34175","1029206-20","","0","1029206","",""
"1029207-20","","東の巨勢(2)","","33.24763","130.34868","1029207-20","","0","1029207","",""
"1029208-10","","蓮池魚町(1)","","33.24647","130.35368","1029208-10","","0","1029208","",""
"1029209-20","","蓮池公園前(2)","","33.24649","130.35605","1029209-20","","0","1029209","",""
"1029210-00","","蓮池郵便局前","","33.24947","130.35658","1029210-00","","0","1029210","",""
"1029211-00","","中地橋","","33.25014","130.36079","1029211-00","","0","1029211","",""
"1029212-00","","芙蓉校前","","33.25008","130.36304","1029212-00","","0","1029212","",""
"1029213-20","","小松(2)","","33.2487","130.36494","1029213-20","","0","1029213","",""
"1029214-20","","堂地(2)","","33.24766","130.36838","1029214-20","","0","1029214","",""
"1029215-00","","蒲田津橋","","33.24497","130.36946","1029215-00","","0","1029215","",""
"1029216-20","","渡端(2)","","33.24215","130.36942","1029216-20","","0","1029216","",""
"1029217-00","","大堂","","33.23857","130.36913","1029217-00","","0","1029217","",""
"1021134-00","","橋津","","33.23615","130.3698","1021134-00","","0","1021134","",""
"1029216-10","","渡端(1)","","33.24156","130.36958","1029216-10","","0","1029216","",""
"1029214-10","","堂地(1)","","33.24735","130.36864","1029214-10","","0","1029214","",""
"1029213-10","","小松(1)","","33.2486","130.36508","1029213-10","","0","1029213","",""
"1029209-10","","蓮池公園前(1)","","33.24643","130.35608","1029209-10","","0","1029209","",""
"1029208-20","","蓮池魚町(2)","","33.24643","130.35374","1029208-20","","0","1029208","",""
"1029207-10","","東の巨勢(1)","","33.24753","130.34859","1029207-10","","0","1029207","",""
"1029206-10","","東西(1)","","33.24817","130.3418","1029206-10","","0","1029206","",""
"1029202-10","","江上町(1)","","33.2478","130.32683","1029202-10","","0","1029202","",""
"1029201-10","","矢ヶ部医院前(1)","","33.24767","130.32336","1029201-10","","0","1029201","",""
"1011044-10","","ちやの木(1)","","33.24376","130.28418","1011044-10","","0","1011044","",""
"1011045-20","","本庄宮前(2)","","33.24215","130.28107","1011045-20","","0","1011045","",""
"1011046-20","","平松(2)","","33.23848","130.27859","1011046-20","","0","1011046","",""
"1011047-20","","中村(2)","","33.2343","130.27583","1011047-20","","0","1011047","",""
"1011048-20","","今津上町(2)","","33.23129","130.27348","1011048-20","","0","1011048","",""
"1011049-20","","今津下町(2)","","33.22997","130.27238","1011049-20","","0","1011049","",""
"1011050-20","","ブルースタジアム前(2)","","33.22677","130.26981","1011050-20","","0","1011050","",""
"1011051-20","","高太郎橋(2)","","33.22281","130.26779","1011051-20","","0","1011051","",""
"1011052-20","","丸目(2)","","33.21874","130.26453","1011052-20","","0","1011052","",""
"1011053-04","","本庄江橋(4)","","33.21919","130.25688","1011053-04","","0","1011053","",""
"1011053-03","","本庄江橋(3)","","33.21929","130.25804","1011053-03","","0","1011053","",""
"1011052-10","","丸目(1)","","33.21886","130.26448","1011052-10","","0","1011052","",""
"1011051-10","","高太郎橋(1)","","33.22279","130.26773","1011051-10","","0","1011051","",""
"1011050-10","","ブルースタジアム前(1)","","33.227","130.26985","1011050-10","","0","1011050","",""
"1011049-10","","今津下町(1)","","33.23011","130.2724","1011049-10","","0","1011049","",""
"1011048-10","","今津上町(1)","","33.23246","130.27426","1011048-10","","0","1011048","",""
"1011047-10","","中村(1)","","33.2357","130.2767","1011047-10","","0","1011047","",""
"1011046-10","","平松(1)","","33.23923","130.27895","1011046-10","","0","1011046","",""
"1011045-10","","本庄宮前(1)","","33.24212","130.28094","1011045-10","","0","1011045","",""
"1011044-20","","ちやの木(2)","","33.24376","130.28412","1011044-20","","0","1011044","",""
"1021119-20","","水ヶ江(2)","","33.2471","130.30908","1021119-20","","0","1021119","",""
"1021120-10","","朝日町(1)","","33.24748","130.31224","1021120-10","","0","1021120","",""
"1021121-20","","安住団地入口(2)","","33.24523","130.31444","1021121-20","","0","1021121","",""
"1021122-20","","武藤(2)","","33.24207","130.3161","1021122-20","","0","1021122","",""
"1021123-20","","中原眼科前(2)","","33.24112","130.32079","1021123-20","","0","1021123","",""
"1021124-20","","北川副小西(2)","","33.24029","130.32257","1021124-20","","0","1021124","",""
"1021125-20","","北川副公民館前(2)","","33.2391","130.32469","1021125-20","","0","1021125","",""
"1021126-20","","江上(2)","","33.23926","130.3277","1021126-20","","0","1021126","",""
"1021127-20","","増田宿(2)","","33.2388","130.33157","1021127-20","","0","1021127","",""
"1021128-20","","光法団地前(2)","","33.23587","130.33182","1021128-20","","0","1021128","",""
"1021129-20","","光法北(2)","","33.23342","130.33192","1021129-20","","0","1021129","",""
"1021130-20","","諸富橋北(2)","","33.22437","130.36456","1021130-20","","0","1021130","",""
"1021131-20","","味の素東門(2)","","33.22566","130.36603","1021131-20","","0","1021131","",""
"1021132-20","","徳富大橋(2)","","33.22955","130.37042","1021132-20","","0","1021132","",""
"1021133-20","","徳富(2)","","33.23484","130.37085","1021133-20","","0","1021133","",""
"1021133-10","","徳富(1)","","33.23503","130.3708","1021133-10","","0","1021133","",""
"1021132-10","","徳富大橋(1)","","33.22923","130.3703","1021132-10","","0","1021132","",""
"1021131-10","","味の素東門(1)","","33.22527","130.3656","1021131-10","","0","1021131","",""
"1021130-10","","諸富橋北(1)","","33.22313","130.36362","1021130-10","","0","1021130","",""
"1021129-10","","光法北(1)","","33.23372","130.33179","1021129-10","","0","1021129","",""
"1021128-10","","光法団地前(1)","","33.23596","130.33171","1021128-10","","0","1021128","",""
"1021127-10","","増田宿(1)","","33.23855","130.33151","1021127-10","","0","1021127","",""
"1021126-10","","江上(1)","","33.23919","130.32738","1021126-10","","0","1021126","",""
"1021125-10","","北川副公民館前(1)","","33.23889","130.32327","1021125-10","","0","1021125","",""
"1021124-10","","北川副小西(1)","","33.23995","130.32237","1021124-10","","0","1021124","",""
"1021123-10","","中原眼科前(1)","","33.24092","130.3206","1021123-10","","0","1021123","",""
"1021122-10","","武藤(1)","","33.24208","130.31606","1021122-10","","0","1021122","",""
"1021121-10","","安住団地入口(1)","","33.24539","130.31435","1021121-10","","0","1021121","",""
"1021120-20","","朝日町(2)","","33.24732","130.3119","1021120-20","","0","1021120","",""
"1021119-10","","水ヶ江(1)","","33.247","130.30925","1021119-10","","0","1021119","",""
"1001415-02","","諸富新村(2)","","33.2239","130.35854","1001415-02","","0","1001415","",""
"1001416-02","","下大津(2)","","33.22629","130.35851","1001416-02","","0","1001416","",""
"1001417-02","","大津(2)","","33.22805","130.35845","1001417-02","","0","1001417","",""
"1001418-02","","上大津公民館前(2)","","33.23008","130.35918","1001418-02","","0","1001418","",""
"1001419-02","","徳富自治会館(2)","","33.22996","130.36736","1001419-02","","0","1001419","",""
"1001419-01","","徳富自治会館(1)","","33.22984","130.36737","1001419-01","","0","1001419","",""
"1001418-01","","上大津公民館前(1)","","33.22999","130.35911","1001418-01","","0","1001418","",""
"1001417-01","","大津(1)","","33.22814","130.35855","1001417-01","","0","1001417","",""
"1001416-01","","下大津(1)","","33.22619","130.35862","1001416-01","","0","1001416","",""
"1001415-01","","諸富新村(1)","","33.22391","130.35865","1001415-01","","0","1001415","",""
"1030220-20","","東神野(2)","","33.2658","130.29347","1030220-20","","0","1030220","",""
"1030221-20","","三溝(2)","","33.26921","130.29375","1030221-20","","0","1030221","",""
"1030222-20","","商業高校前(2)","","33.27101","130.29388","1030222-20","","0","1030222","",""
"1030223-20","","ＳＡＧＡサンライズパーク（市文化会館前）(2)","","33.27649","130.29311","1030223-20","","0","1030223","",""
"1030224-20","","ＳＡＧＡサンライズパーク北(2)","","33.2789","130.2925","1030224-20","","0","1030224","",""
"1030225-20","","館橋(2)","","33.28109","130.29205","1030225-20","","0","1030225","",""
"1030226-20","","高木瀬小学校前(2)","","33.28419","130.2912","1030226-20","","0","1030226","",""
"1030229-20","","三本松(2)","","33.29486","130.2867","1030229-20","","0","1030229","",""
"1030230-20","","川原(2)","","33.29863","130.28543","1030230-20","","0","1030230","",""
"1030231-20","","福田(2)","","33.30158","130.28442","1030231-20","","0","1030231","",""
"1030232-20","","グリコ佐賀工場前(2)","","33.304326","130.283391","1030232-20","","0","1030232","",""
"1030233-20","","尼寺(2)","","33.30856","130.28197","1030233-20","","0","1030233","",""
"1030234-02","","尼寺東(2)","","33.311","130.28474","1030234-02","","0","1030234","",""
"1030235-10","","真島(1)","","33.31116","130.2879","1030235-10","","0","1030235","",""
"1030236-20","","福島(2)","","33.31093","130.2925","1030236-20","","0","1030236","",""
"1030237-20","","西千布(2)","","33.31054","130.2973","1030237-20","","0","1030237","",""
"1030238-20","","千布(2)","","33.31033","130.29997","1030238-20","","0","1030238","",""
"1030239-20","","金立団地前(2)","","33.3122","130.30092","1030239-20","","0","1030239","",""
"1030240-20","","整肢学園前(2)","","33.315499","130.301028","1030240-20","","0","1030240","",""
"1030241-20","","金立(2)","","33.31881","130.30103","1030241-20","","0","1030241","",""
"1030242-20","","正現社前(2)","","33.32054","130.30232","1030242-20","","0","1030242","",""
"1030243-20","","来迎寺(2)","","33.32154","130.30588","1030243-20","","0","1030243","",""
"1030244-20","","若宮原(2)","","33.32251","130.31284","1030244-20","","0","1030244","",""
"1030245-20","","自動車試験場前(2)","","33.3237","130.31604","1030245-20","","0","1030245","",""
"1030246-00","","運転免許センター","","33.32443","130.31787","1030246-00","","0","1030246","",""
"1030245-10","","自動車試験場前(1)","","33.3236","130.31622","1030245-10","","0","1030245","",""
"1030244-10","","若宮原(1)","","33.32254","130.31331","1030244-10","","0","1030244","",""
"1030243-10","","来迎寺(1)","","33.32151","130.30641","1030243-10","","0","1030243","",""
"1030242-10","","正現社前(1)","","33.320411","130.302356","1030242-10","","0","1030242","",""
"1030241-10","","金立(1)","","33.31923","130.30133","1030241-10","","0","1030241","",""
"1030240-10","","整肢学園前(1)","","33.314824","130.301161","1030240-10","","0","1030240","",""
"1030239-10","","金立団地前(1)","","33.31202","130.30103","1030239-10","","0","1030239","",""
"1030238-10","","千布(1)","","33.3102","130.30026","1030238-10","","0","1030238","",""
"1030237-10","","西千布(1)","","33.31045","130.29726","1030237-10","","0","1030237","",""
"1030236-10","","福島(1)","","33.31089","130.29245","1030236-10","","0","1030236","",""
"1030234-01","","尼寺東(1)","","33.31089","130.28452","1030234-01","","0","1030234","",""
"1030233-10","","尼寺(1)","","33.30854","130.2821","1030233-10","","0","1030233","",""
"1030232-10","","グリコ佐賀工場前(1)","","33.304763","130.283353","1030232-10","","0","1030232","",""
"1030231-10","","福田(1)","","33.30198","130.28438","1030231-10","","0","1030231","",""
"1030230-10","","川原(1)","","33.29902","130.28534","1030230-10","","0","1030230","",""
"1030229-10","","三本松(1)","","33.29468","130.28687","1030229-10","","0","1030229","",""
"1030227-01","","高木瀬公民館前(1)","","33.2865","130.2897","1030227-01","","0","1030227","",""
"1030226-10","","高木瀬小学校前(1)","","33.28436","130.29123","1030226-10","","0","1030226","",""
"1030225-10","","館橋(1)","","33.28097","130.29225","1030225-10","","0","1030225","",""
"1030224-10","","ＳＡＧＡサンライズパーク北(1)","","33.27824","130.29289","1030224-10","","0","1030224","",""
"1030223-10","","ＳＡＧＡサンライズパーク（市文化会館前）(1)","","33.276784","130.293244","1030223-10","","0","1030223","",""
"1030222-10","","商業高校前(1)","","33.27176","130.2941","1030222-10","","0","1030222","",""
"1030221-10","","三溝(1)","","33.26902","130.29391","1030221-10","","0","1030221","",""
"1030220-10","","東神野(1)","","33.26747","130.29382","1030220-10","","0","1030220","",""
"1030219-01","","堀江通(1)","","33.26472","130.29364","1030219-01","","0","1030219","",""
"1030247-00","","開拓入口","","33.32502","130.30476","1030247-00","","0","1030247","",""
"1030248-20","","弘学館前(2)","","33.32813","130.30524","1030248-20","","0","1030248","",""
"1030249-20","","金立いこいの広場(2)","","33.32832","130.30893","1030249-20","","0","1030249","",""
"1030250-20","","島崎(2)","","33.32487","130.30865","1030250-20","","0","1030250","",""
"1030250-10","","島崎(1)","","33.32523","130.30855","1030250-10","","0","1030250","",""
"1030249-10","","金立いこいの広場(1)","","33.32822","130.30862","1030249-10","","0","1030249","",""
"1030248-10","","弘学館前(1)","","33.328","130.30528","1030248-10","","0","1030248","",""
"1030234-03","","尼寺東(3)","","33.309635","130.283862","1030234-03","","0","1030234","",""
"1030235-20","","真島(2)","","33.31087","130.28856","1030235-20","","0","1030235","",""
"1059338-20","","新栄団地(2)","","33.2596","130.27713","1059338-20","","0","1059338","",""
"1059339-20","","八戸溝一丁目(2)","","33.2612","130.27522","1059339-20","","0","1059339","",""
"1059340-20","","八戸溝二丁目(2)","","33.26172","130.27408","1059340-20","","0","1059340","",""
"1059341-20","","西佐賀団地(2)","","33.26128","130.27026","1059341-20","","0","1059341","",""
"1059342-20","","鍋島駅北(2)","","33.26051","130.26585","1059342-20","","0","1059342","",""
"1059343-00","","江頭","","33.26268","130.2641","1059343-00","","0","1059343","",""
"1059342-10","","鍋島駅北(1)","","33.2606","130.26619","1059342-10","","0","1059342","",""
"1059341-10","","西佐賀団地(1)","","33.26141","130.27049","1059341-10","","0","1059341","",""
"1059340-10","","八戸溝二丁目(1)","","33.26178","130.27405","1059340-10","","0","1059340","",""
"1059339-10","","八戸溝一丁目(1)","","33.26164","130.27522","1059339-10","","0","1059339","",""
"1059338-10","","新栄団地(1)","","33.25946","130.27722","1059338-10","","0","1059338","",""
"3607021-00","","加布里","","33.546221","130.160907","3607021-00","","0","3607021","",""
"3607038-01","","加布里東口(1)","","33.546704","130.164345","3607038-01","","0","3607038","",""
"3607020-01","","犬石(1)","","33.546597","130.170503","3607020-01","","0","3607020","",""
"3607019-01","","赤坂(1)","","33.547157","130.175748","3607019-01","","0","3607019","",""
"3607001-01","","神在(1)","","33.547998","130.181887","3607001-01","","0","3607001","",""
"3607002-01","","荻の浦(1)","","33.552689","130.188861","3607002-01","","0","3607002","",""
"3607003-01","","筒井町(1)","","33.557375","130.193095","3607003-01","","0","3607003","",""
"3607004-01","","前原(1)","","33.55944","130.199226","3607004-01","","0","3607004","",""
"3607133-00","","上町（前原）","","33.558281","130.204558","3607133-00","","0","3607133","",""
"3607238-02","","篠原公園(2)","","33.553925","130.2048","3607238-02","","0","3607238","",""
"3607226-02","","南風台東(2)","","33.54999","130.199397","3607226-02","","0","3607226","",""
"3607232-02","","南風台中央(2)","","33.548694","130.195475","3607232-02","","0","3607232","",""
"3607243-01","","前原インター口(1)","","33.544248","130.196933","3607243-01","","0","3607243","",""
"3607272-01","","産業団地前(1)","","33.542126","130.198792","3607272-01","","0","3607272","",""
"3606007-01","","天神四丁目(1)","","33.593371","130.401081","3606007-01","","0","3606007","",""
"3606006-01","","中洲(1)","","33.594304","130.402885","3606006-01","","0","3606006","",""
"3606005-01","","博多五町(1)","","33.5971","130.405595","3606005-01","","0","3606005","",""
"3606004-01","","呉服町(1)","","33.598501","130.408994","3606004-01","","0","3606004","",""
"3606003-01","","祗園町(1)","","33.594752","130.413838","3606003-01","","0","3606003","",""
"3606002-00","","博多バスターミナル","","33.591486","130.419726","3606002-00","","0","3606002","",""
"3606003-02","","祗園町(2)","","33.594792","130.413256","3606003-02","","0","3606003","",""
"3606004-02","","呉服町(2)","","33.596594","130.410937","3606004-02","","0","3606004","",""
"3606005-02","","博多五町(2)","","33.596777","130.405846","3606005-02","","0","3606005","",""
"3606006-02","","中洲(2)","","33.594145","130.40328","3606006-02","","0","3606006","",""
"3606007-02","","天神四丁目(2)","","33.593075","130.401271","3606007-02","","0","3606007","",""
"3606008-00","","天神三丁目","","33.591423","130.396297","3606008-00","","0","3606008","",""
"3607272-02","","産業団地前(2)","","33.542308","130.198473","3607272-02","","0","3607272","",""
"3607243-02","","前原インター口(2)","","33.544509","130.19651","3607243-02","","0","3607243","",""
"3607232-01","","南風台中央(1)","","33.549022","130.196534","3607232-01","","0","3607232","",""
"3607226-01","","南風台東(1)","","33.550716","130.200255","3607226-01","","0","3607226","",""
"3607238-01","","篠原公園(1)","","33.554046","130.204797","3607238-01","","0","3607238","",""
"3607004-02","","前原(2)","","33.559317","130.199653","3607004-02","","0","3607004","",""
"3607003-02","","筒井町(2)","","33.557522","130.193426","3607003-02","","0","3607003","",""
"3607002-02","","荻の浦(2)","","33.552982","130.189487","3607002-02","","0","3607002","",""
"3607001-02","","神在(2)","","33.548345","130.182853","3607001-02","","0","3607001","",""
"3607019-02","","赤坂(2)","","33.547058","130.176372","3607019-02","","0","3607019","",""
"3607020-02","","犬石(2)","","33.546478","130.171181","3607020-02","","0","3607020","",""
"3607038-02","","加布里東口(2)","","33.54659","130.16416","3607038-02","","0","3607038","",""
"3607292-00","","伊都営業所","","33.602882","130.210134","3607292-00","","0","3607292","",""
"3607295-01","","扇原(1)","","33.611435","130.201415","3607295-01","","0","3607295","",""
"3607068-00","","谷","","33.613884","130.198835","3607068-00","","0","3607068","",""
"3607067-01","","桜井(1)","","33.61997","130.193017","3607067-01","","0","3607067","",""
"3607066-00","","伊牟田","","33.621955","130.187079","3607066-00","","0","3607066","",""
"3607065-01","","赤隈(1)","","33.620588","130.181322","3607065-01","","0","3607065","",""
"3607064-00","","桜野小学校","","33.618407","130.177979","3607064-00","","0","3607064","",""
"3607063-00","","間少路","","33.616632","130.172546","3607063-00","","0","3607063","",""
"3607062-00","","野北(1)","","33.614308","130.165948","3607062-00","","0","3607062","",""
"3607061-01","","久米(1)","","33.609204","130.171221","3607061-01","","0","3607061","",""
"3607060-00","","吉田","","33.601065","130.183152","3607060-00","","0","3607060","",""
"3007297-00","","井田原北","","33.591742","130.183361","3007297-00","","0","3007297","",""
"3607059-00","","井田原","","33.588118","130.184144","3607059-00","","0","3607059","",""
"3007298-01","","志摩中央公園前(1)","","33.58235","130.184319","3007298-01","","0","3007298","",""
"3607057-01","","夫婦橋(1)","","33.577287","130.187265","3607057-01","","0","3607057","",""
"3607056-01","","作出入口(1)","","33.573832","130.187962","3607056-01","","0","3607056","",""
"3607055-01","","大浦台団地入口(1)","","33.569619","130.188133","3607055-01","","0","3607055","",""
"3607054-01","","加布羅(1)","","33.565158","130.189962","3607054-01","","0","3607054","",""
"3607053-01","","北新地(1)","","33.562184","130.195546","3607053-01","","0","3607053","",""
"3607268-01","","商工会前(1)","","33.560911","130.197885","3607268-01","","0","3607268","",""
"3607268-02","","商工会前(2)","","33.560368","130.19792","3607268-02","","0","3607268","",""
"3607053-02","","北新地(2)","","33.562173","130.195318","3607053-02","","0","3607053","",""
"3607054-02","","加布羅(2)","","33.565161","130.189779","3607054-02","","0","3607054","",""
"3607055-02","","大浦台団地入口(2)","","33.5698","130.188045","3607055-02","","0","3607055","",""
"3607056-02","","作出入口(2)","","33.573595","130.187883","3607056-02","","0","3607056","",""
"3607057-02","","夫婦橋(2)","","33.578039","130.186768","3607057-02","","0","3607057","",""
"3007298-02","","志摩中央公園前(2)","","33.582591","130.184211","3007298-02","","0","3007298","",""
"3607060-01","","吉田","","33.600957","130.183026","3607060-01","","0","3607060","",""
"3607061-02","","久米(2)","","33.609115","130.1712","3607061-02","","0","3607061","",""
"3607062-01","","野北(2)","","33.614134","130.166359","3607062-01","","0","3607062","",""
"3607065-02","","赤隈(2)","","33.620493","130.180977","3607065-02","","0","3607065","",""
"3607067-02","","桜井(2)","","33.620426","130.192814","3607067-02","","0","3607067","",""
"3607295-02","","扇原(2)","","33.610922","130.201601","3607295-02","","0","3607295","",""
"3401792-00","","伊万里営業所","","33.273931","129.871069","3401792-00","","0","3401792","",""
"3115671-01","","伊万里駅前(1)","","33.27201","129.87645","3115671-01","","0","3115671","",""
"3115672-01","","東町（伊万里）(1)","","33.2746","129.88351","3115672-01","","0","3115672","",""
"3115684-10","","伊万里ふるさと村(1)","","33.31314","129.92854","3115684-10","","0","3115684","",""
"3115692-10","","北波多(1)","","33.37329","129.94745","3115692-10","","0","3115692","",""
"3066323-10","","山本(1)","","33.39269","129.98068","3066323-10","","0","3066323","",""
"3066331-10","","唐津インター口（原中原）(1)","","33.41499","129.99457","3066331-10","","0","3066331","",""
"3066335-10","","今組(1)","","33.43094","130.00137","3066335-10","","0","3066335","",""
"3050270-20","","鏡山下(2)","","33.43605","130.013","3050270-20","","0","3050270","",""
"3001898-02","","横田下東","","33.43865","130.033705","3001898-02","","0","3001898","",""
"3602371-00","","天神日銀前","","33.592834","130.399857","3602371-00","","0","3602371","",""
"3602370-00","","西鉄天神高速バスターミナル","","33.588262","130.40045","3602370-00","","0","3602370","",""
"3001898-01","","横田下東","","33.438576","130.033944","3001898-01","","0","3001898","",""
"3050270-10","","鏡山下(1)","","33.43575","130.01212","3050270-10","","0","3050270","",""
"3066335-20","","今組(2)","","33.43085","130.00154","3066335-20","","0","3066335","",""
"3066331-20","","唐津インター口（原中原）(2)","","33.41485","129.99472","3066331-20","","0","3066331","",""
"3066323-20","","山本(2)","","33.39225","129.98111","3066323-20","","0","3066323","",""
"3115692-20","","北波多(2)","","33.3732","129.94763","3115692-20","","0","3115692","",""
"3115684-20","","伊万里ふるさと村(2)","","33.31294","129.92871","3115684-20","","0","3115684","",""
"3115672-02","","東町（伊万里）(2)","","33.27446","129.88353","3115672-02","","0","3115672","",""
"3115671-02","","伊万里駅前(2)","","33.27187","129.87657","3115671-02","","0","3115671","",""
"3606199-02","","福岡空港国内線(2)","","33.598559","130.447897","3606199-02","","0","3606199","",""
"3606199-01","","福岡空港国内線(1)","","33.600062","130.446906","3606199-01","","0","3606199","",""
"3004035-20","","丸宗(2)","","33.43188","129.98093","3004035-20","","0","3004035","",""
"3007048-20","","用尺南(2)","","33.43755","129.98161","3007048-20","","0","3007048","",""
"3003027-20","","栄町東(2)","","33.44674","129.9772","3003027-20","","0","3003027","",""
"3001023-04","","大手口（旧辻薬局前）","","33.449092","129.969599","3001023-04","","0","3001023","",""
"3078373-10","","アルピノ前(1)","","33.44627","129.97029","3078373-10","","0","3078373","",""
"3121789-00","","宝当桟橋","","33.450031","129.975837","3121789-00","","0","3121789","",""
"3076349-30","","早稲田佐賀中高前","","33.452757","129.976168","3076349-30","","0","3001909","",""
"3078373-20","","アルピノ前(2)","","33.44614","129.97017","3078373-20","","0","3078373","",""
"3001023-03","","大手口（唐津バスセンター3番乗り場）","","33.449538","129.969571","3001023-03","","0","3001023","",""
"3003027-10","","栄町東(1)","","33.44626","129.9783","3003027-10","","0","3003027","",""
"3007048-10","","用尺南(1)","","33.43689","129.98145","3007048-10","","0","3007048","",""
"3004035-10","","丸宗(1)","","33.43183","129.98126","3004035-10","","0","3004035","",""
"3024130-10","","唐津駅(1)","","33.44653","129.96817","3024130-10","","0","3024130","",""
"3046232-20","","汐の先(2)","","33.4441","129.96761","3046232-20","","0","3046232","",""
"3004034-10","","まいづる９９９前(1)","","33.43911","129.96722","3004034-10","","0","3004034","",""
"3078378-00","","長谷団地(1)","","33.4357","129.97403","3078378-00","","0","3078378","",""
"3078379-00","","唐津赤十字病院","","33.43391","129.97391","3078379-00","","0","3078379","",""
"3078378-01","","長谷団地(2)","","33.436202","129.974194","3078378-01","","0","3078378","",""
"3078377-01","","和多田新道(2)","","33.438015","129.974939","3078377-01","","0","3078377","",""
"3078376-01","","町田四丁目(2)","","33.440563","129.973743","3078376-01","","0","3078376","",""
"3078375-01","","町田三丁目（中野窯）(2)","","33.441992","129.971315","3078375-01","","0","3078375","",""
"3078374-01","","町田五丁目(2)","","33.445221","129.972205","3078374-01","","0","3078374","",""
"3001023-01","","大手口（唐津バスセンター1番乗り場）","","33.449556","129.969305","3001023-01","","0","3001023","",""
"3076347-10","","大名小路(1)","","33.45054","129.97197","3076347-10","","0","3076347","",""
"3076348-10","","保健福祉事務所前(1)","","33.45137","129.97243","3076348-10","","0","3076348","",""
"3076349-10","","唐津城入口(1)","","33.45249","129.97729","3076349-10","","0","3076349","",""
"3076350-10","","東唐津一丁目(1)","","33.45032","129.98244","3076350-10","","0","3076350","",""
"3076351-10","","東唐津二丁目(1)","","33.44999","129.98305","3076351-10","","0","3076351","",""
"3076352-10","","東唐津三丁目(1)","","33.44889","129.98509","3076352-10","","0","3076352","",""
"3005043-10","","東唐津(1)","","33.44831","129.9873","3005043-10","","0","3005043","",""
"3005044-10","","シーサイド前(1)","","33.44747","129.98903","3005044-10","","0","3005044","",""
"3005045-10","","東唐津駅(1)","","33.43957","129.99667","3005045-10","","0","3005045","",""
"3005046-10","","唐津東中高前(1)","","33.43499","130.0005","3005046-10","","0","3005046","",""
"3070346-00","","イオン唐津店","","33.43647","130.01234","3070346-00","","0","3070346","",""
"3005046-20","","唐津東中高前(2)","","33.43528","130.00024","3005046-20","","0","3005046","",""
"3005045-20","","東唐津駅(2)","","33.4395","129.9967","3005045-20","","0","3005045","",""
"3005044-20","","シーサイド前(2)","","33.44754","129.98871","3005044-20","","0","3005044","",""
"3005043-20","","東唐津(2)","","33.44814","129.9873","3005043-20","","0","3005043","",""
"3076352-20","","東唐津三丁目(2)","","33.44877","129.98521","3076352-20","","0","3076352","",""
"3076351-20","","東唐津二丁目(2)","","33.44982","129.98314","3076351-20","","0","3076351","",""
"3076350-20","","東唐津一丁目(2)","","33.45042","129.98216","3076350-20","","0","3076350","",""
"3076349-20","","唐津城入口(2)","","33.45246","129.97687","3076349-20","","0","3076349","",""
"3076353-00","","城内二の門","","33.45227","129.97351","3076353-00","","0","3076353","",""
"3076348-20","","保健福祉事務所前(2)","","33.45146","129.97261","3076348-20","","0","3076348","",""
"3076347-20","","大名小路(2)","","33.45028","129.97189","3076347-20","","0","3076347","",""
"3078374-00","","町田五丁目(1)","","33.44435","129.9718","3078374-00","","0","3078374","",""
"3078375-00","","町田三丁目（中野窯）(1)","","33.44273","129.97096","3078375-00","","0","3078375","",""
"3078376-00","","町田四丁目(1)","","33.44081","129.97356","3078376-00","","0","3078376","",""
"3078377-00","","和多田新道(1)","","33.43839","129.97519","3078377-00","","0","3078377","",""
"3004034-20","","まいづる９９９前(2)","","33.43876","129.96754","3004034-20","","0","3004034","",""
"3046232-10","","汐の先(1)","","33.44363","129.96725","3046232-10","","0","3046232","",""
"3607286-01","","つまんでご卵(1)","","33.624847","130.184956","3607286-01","","0","3607286","",""
"3009070-01","","大口・櫻井神社西口(1)","","33.628302","130.184546","3009070-01","","0","3009070","",""
"3607284-01","","二見ヶ浦・月と太陽糸島茶房前","","33.640769","130.200019","3607284-01","","0","3607284","",""
"3607283-01","","二見ヶ浦・PALMBEACH前","","33.642464","130.201459","3607283-01","","0","3607283","",""
"3607287-01","","西の浦保育園前(1)","","33.648014","130.208308","3607287-01","","0","3607287","",""
"3606045-00","","西の浦","","33.650331","130.211596","3606045-00","","0","3606045","",""
"3606042-01","","宮の浦（福岡市西区）(1)","","33.641451","130.227066","3606042-01","","0","3606042","",""
"3606217-01","","ざうお本店前(1)","","33.628429","130.227347","3606217-01","","0","3606217","",""
"3606122-01","","海釣公園前(1)","","33.626405","130.228869","3606122-01","","0","3606122","",""
"3606130-01","","大原西(1)","","33.617634","130.231152","3606130-01","","0","3606130","",""
"3606038-01","","大原橋(1)","","33.614427","130.234271","3606038-01","","0","3606038","",""
"3606170-01","","今津運動公園前(1)","","33.607917","130.249988","3606170-01","","0","3606170","",""
"3606170-02","","今津運動公園前(2)","","33.607855","130.249888","3606170-02","","0","3606170","",""
"3606038-02","","大原橋(2)","","33.614362","130.2342","3606038-02","","0","3606038","",""
"3606130-02","","大原西(2)","","33.616432","130.23155","3606130-02","","0","3606130","",""
"3606122-02","","海釣公園前(2)","","33.626704","130.22842","3606122-02","","0","3606122","",""
"3606217-02","","ざうお本店前(2)","","33.62886","130.226746","3606217-02","","0","3606217","",""
"3606042-02","","宮の浦（福岡市西区）(2)","","33.641558","130.226559","3606042-02","","0","3606042","",""
"3607287-02","","西の浦保育園前(2)","","33.647632","130.20819","3607287-02","","0","3607287","",""
"3607283-02","","二見ヶ浦・PALMBEACH前","","33.642498","130.201592","3607283-02","","0","3607283","",""
"3607284-02","","二見ヶ浦・月と太陽糸島茶房前","","33.640696","130.20015","3607284-02","","0","3607284","",""
"3009070-02","","大口・櫻井神社西口(2)","","33.627804","130.184628","3009070-02","","0","3009070","",""
"3607286-02","","つまんでご卵(2)","","33.624332","130.185353","3607286-02","","0","3607286","",""
"3003025-10","","千代田町(1)","","33.44841","129.97446","3003025-10","","0","3003025","",""
"3003026-10","","栄町(1)","","33.44791","129.97537","3003026-10","","0","3003026","",""
"3003028-10","","船宮(1)","","33.44509","129.98041","3003028-10","","0","3003028","",""
"3003029-10","","松浦橋(1)","","33.44419","129.9828","3003029-10","","0","3003029","",""
"3001257-00","","干居","","33.440326","130.036255","3001257-00","","0","3001257","",""
"3001256-00","","松原口","","33.444229","130.033514","3001256-00","","0","3001256","",""
"3001578-00","","浜崎駅北口","","33.447012","130.036945","3001578-00","","0","3001578","",""
"3050262-20","","浜崎四ッ角(2)","","33.44938","130.04144","3050262-20","","0","3050262","",""
"3050261-20","","浜玉中学校前(2)","","33.4489","130.0455","3050261-20","","0","3050261","",""
"3050260-00","","大江","","33.44787","130.04842","3050260-00","","0","3050260","",""
"3050259-20","","大江上(2)","","33.44796","130.05176","3050259-20","","0","3050259","",""
"3050258-20","","新岡口橋(2)","","33.44489","130.0571","3050258-20","","0","3050258","",""
"3050257-00","","土井","","33.4439","130.05939","3050257-00","","0","3050257","",""
"3050256-00","","玉島神社前（バス）","","33.44174","130.06396","3050256-00","","0","3050256","",""
"3050255-00","","五反田","","33.44117","130.06662","3050255-00","","0","3050255","",""
"3050254-00","","簗場","","33.44171","130.07129","3050254-00","","0","3050254","",""
"3050253-00","","下柳瀬","","33.44","130.08466","3050253-00","","0","3050253","",""
"3050252-10","","上柳瀬(1)","","33.43906","130.0905","3050252-10","","0","3050252","",""
"3050251-20","","鮎返(2)","","33.44453","130.1021","3050251-20","","0","3050251","",""
"3050250-00","","樽門","","33.44498","130.10744","3050250-00","","0","3050250","",""
"3050249-00","","藤川","","33.44422","130.11223","3050249-00","","0","3050249","",""
"3050248-00","","七山","","33.44368","130.11552","3050248-00","","0","3050248","",""
"3001841-00","","七山郵便局前","","33.442667","130.115908","3001841-00","","0","3001841","",""
"3001883-00","","七山市民センター前","","33.441693","130.116152","3001883-00","","0","3001883","",""
"3050251-10","","鮎返(1)","","33.44441","130.10202","3050251-10","","0","3050251","",""
"3050258-10","","新岡口橋(1)","","33.44474","130.05701","3050258-10","","0","3050258","",""
"3050259-10","","大江上(1)","","33.44774","130.0518","3050259-10","","0","3050259","",""
"3050261-10","","浜玉中学校前(1)","","33.44868","130.04594","3050261-10","","0","3050261","",""
"3050262-10","","浜崎四ッ角(1)","","33.44934","130.04144","3050262-10","","0","3050262","",""
"3003029-20","","松浦橋(2)","","33.44429","129.98213","3003029-20","","0","3003029","",""
"3003028-20","","船宮(2)","","33.44544","129.9796","3003028-20","","0","3003028","",""
"3003026-20","","栄町(2)","","33.44781","129.97528","3003026-20","","0","3003026","",""
"3003025-20","","千代田町(2)","","33.44871","129.97359","3003025-20","","0","3003025","",""
"3001023-06","","大手口（降車場2）","","33.449158","129.970644","3001023-06","","0","3001023","",""
"3084498-10","","愛敬町(1)","","33.26225","130.29994","3084498-10","","0","3084498","",""
"3084496-20","","三溝東(2)","","33.26838","130.29651","3084496-20","","0","3084496","",""
"3084495-20","","商業校門前(2)","","33.27011","130.29555","3084495-20","","0","3084495","",""
"3086506-20","","長瀬(2)","","33.29391","130.28429","3086506-20","","0","3086506","",""
"3002435-02","","五領","","33.29991","130.280353","3002435-02","","0","3002435","",""
"3086505-20","","イオンモール佐賀大和(2)","","33.30297","130.28178","3086505-20","","0","3086505","",""
"3084482-20","","駄市川原(2)","","33.30918","130.2765","3084482-20","","0","3084482","",""
"3084481-20","","大和中学校前(2)","","33.3091","130.2693","3084481-20","","0","3084481","",""
"3084480-20","","立石(2)","","33.30841","130.26509","3084480-20","","0","3084480","",""
"3084479-00","","大橋（大和町）","","33.3076","130.25954","3084479-00","","0","3084479","",""
"3084478-20","","中極(2)","","33.30648","130.25407","3084478-20","","0","3084478","",""
"3084477-20","","大久保（大和町）(2)","","33.30491","130.24936","3084477-20","","0","3084477","",""
"3084476-00","","江熊野","","33.304","130.24614","3084476-00","","0","3084476","",""
"3084475-20","","大和特別支援学校前(2)","","33.3034","130.24283","3084475-20","","0","3084475","",""
"3084474-00","","今古賀（大和町）","","33.30307","130.24059","3084474-00","","0","3084474","",""
"3084473-20","","山王(2)","","33.30253","130.2374","3084473-20","","0","3084473","",""
"3084472-20","","今市(2)","","33.3016","130.23155","3084472-20","","0","3084472","",""
"3084471-20","","大地町(2)","","33.3005","130.22481","3084471-20","","0","3084471","",""
"3084470-00","","御門前","","33.29962","130.21547","3084470-00","","0","3084470","",""
"3084469-20","","高原(2)","","33.2997","130.20746","3084469-20","","0","3084469","",""
"3084468-20","","上町（小城）(2)","","33.29997","130.20392","3084468-20","","0","3084468","",""
"3084467-00","","ひらまつ病院","","33.29765","130.20076","3084467-00","","0","3084467","",""
"3084466-20","","下町（小城）(2)","","33.29544","130.20117","3084466-20","","0","3084466","",""
"3080413-00","","小城","","33.29356","130.19905","3080413-00","","0","3080413","",""
"3084466-10","","下町（小城）(1)","","33.29549","130.20103","3084466-10","","0","3084466","",""
"3084468-10","","上町（小城）(1)","","33.30029","130.20396","3084468-10","","0","3084468","",""
"3084469-10","","高原(1)","","33.29976","130.20753","3084469-10","","0","3084469","",""
"3084471-10","","大地町(1)","","33.30087","130.22607","3084471-10","","0","3084471","",""
"3084472-10","","今市(1)","","33.30174","130.23181","3084472-10","","0","3084472","",""
"3084473-10","","山王(1)","","33.30238","130.23553","3084473-10","","0","3084473","",""
"3084475-10","","大和特別支援学校前(1)","","33.30354","130.24319","3084475-10","","0","3084475","",""
"3084477-10","","大久保（大和町）(1)","","33.3051","130.24971","3084477-10","","0","3084477","",""
"3084478-10","","中極(1)","","33.30711","130.25543","3084478-10","","0","3084478","",""
"3084480-10","","立石(1)","","33.30838","130.26421","3084480-10","","0","3084480","",""
"3084481-10","","大和中学校前(1)","","33.30915","130.26854","3084481-10","","0","3084481","",""
"3084482-10","","駄市川原(1)","","33.30931","130.27759","3084482-10","","0","3084482","",""
"3086505-10","","イオンモール佐賀大和(1)","","33.30281","130.28159","3086505-10","","0","3086505","",""
"3002435-01","","五領","","33.299995","130.280541","3002435-01","","0","3002435","",""
"3086506-10","","長瀬(1)","","33.29396","130.2845","3086506-10","","0","3086506","",""
"3084495-10","","商業校門前(1)","","33.27013","130.29572","3084495-10","","0","3084495","",""
"3084496-10","","三溝東(1)","","33.26789","130.29671","3084496-10","","0","3084496","",""
"3084498-20","","愛敬町(2)","","33.26215","130.29993","3084498-20","","0","3084498","",""
"1024166-10","","護国神社前(1)","","33.25308","130.29344","1024166-10","","0","1024166","",""
"3607254-01","","九大学研都市駅 1番乗り場","","33.578539","130.259169","3607254-01","","0","3607254","",""
"3607016-02","","北原(2)","","33.580197","130.256293","3607016-02","","0","3607016","",""
"3607015-02","","山崎(2)","","33.576989","130.252429","3607015-02","","0","3607015","",""
"3607014-02","","周船寺東口(2)","","33.574399","130.249179","3607014-02","","0","3607014","",""
"3607013-02","","周船寺(2)","","33.572984","130.244569","3607013-02","","0","3607013","",""
"3607257-02","","泉(2)","","33.577838","130.241545","3607257-02","","0","3607257","",""
"3607258-02","","富士見(2)","","33.580917","130.240174","3607258-02","","0","3607258","",""
"3607259-02","","たろう保育園前(2)","","33.583184","130.238931","3607259-02","","0","3607259","",""
"3607260-02","","元岡農協前(2)","","33.587615","130.236557","3607260-02","","0","3607260","",""
"3607270-02","","産学連携交流センター(2)","","33.593713","130.229148","3607270-02","","0","3607270","",""
"3607275-02","","西消防署元岡出張所前(2)","","33.595129","130.227002","3607275-02","","0","3607275","",""
"3607253-02","","九大ビッグオレンジ(2)","","33.598206","130.223539","3607253-02","","0","3607253","",""
"3607281-00","","九大理学部","","33.597473","130.219893","3607281-00","","0","3607281","",""
"3607252-02","","九大工学部(2)","","33.596995","130.217137","3607252-02","","0","3607252","",""
"3607288-02","","九大農学部(2)","","33.594497","130.21402","3607288-02","","0","3607288","",""
"3607274-02","","九大船舶・航空実験棟(2)","","33.597524","130.211548","3607274-02","","0","3607274","",""
"3607273-02","","九大総合グラウンド(2)","","33.599406","130.210055","3607273-02","","0","3607273","",""
"3607273-01","","九大総合グラウンド(1)","","33.599441","130.210191","3607273-01","","0","3607273","",""
"3607274-01","","九大船舶・航空実験棟(1)","","33.597394","130.211811","3607274-01","","0","3607274","",""
"3607288-01","","九大農学部(1)","","33.594614","130.212853","3607288-01","","0","3607288","",""
"3607252-01","","九大工学部(1)","","33.596538","130.216305","3607252-01","","0","3607252","",""
"3607253-01","","九大ビッグオレンジ(1)","","33.59766","130.221627","3607253-01","","0","3607253","",""
"3607276-00","","九大センターゾーン入口","","33.59782","130.224626","3607276-00","","0","3607276","",""
"3607275-01","","西消防署元岡出張所前(1)","","33.595017","130.227534","3607275-01","","0","3607275","",""
"3607270-01","","産学連携交流センター(1)","","33.593872","130.229249","3607270-01","","0","3607270","",""
"3607260-01","","元岡農協前(1)","","33.587528","130.236707","3607260-01","","0","3607260","",""
"3607259-01","","たろう保育園前(1)","","33.583985","130.238221","3607259-01","","0","3607259","",""
"3607258-01","","富士見(1)","","33.580572","130.240456","3607258-01","","0","3607258","",""
"3607257-01","","泉(1)","","33.57767","130.241738","3607257-01","","0","3607257","",""
"3607013-01","","周船寺(1)","","33.573443","130.245681","3607013-01","","0","3607013","",""
"3607014-01","","周船寺東口(1)","","33.574515","130.249163","3607014-01","","0","3607014","",""
"3607015-01","","山崎(1)","","33.577054","130.252225","3607015-01","","0","3607015","",""
"3607016-01","","北原(1)","","33.580249","130.256095","3607016-01","","0","3607016","",""
"3607254-05","","九大学研都市駅 降車場","","33.578274","130.259377","3607254-05","","0","3607254","",""
"3607276-01","","九大センターゾーン入口","","33.59903","130.223901","3607276-01","","0","3607276","",""
"3607254-03","","九大学研都市駅 3番乗り場","","33.578237","130.258651","3607254-03","","0","3607254","",""
"3007303-02","","ゲートウェイ(2)","","33.580703","130.253021","3007303-02","","0","3007303","",""
"3007304-02","","学園通(2)","","33.585047","130.249523","3007304-02","","0","3007304","",""
"3607075-02","","元岡郵便局前(2)","","33.587935","130.245009","3607075-02","","0","3607075","",""
"3607074-02","","元岡小学校前(2)","","33.58898","130.239124","3607074-02","","0","3607074","",""
"3607074-01","","元岡小学校前(1)","","33.589122","130.239445","3607074-01","","0","3607074","",""
"3607075-01","","元岡郵便局前(1)","","33.588094","130.245103","3607075-01","","0","3607075","",""
"3007304-01","","学園通(1)","","33.5843","130.250408","3007304-01","","0","3007304","",""
"3007303-01","","ゲートウェイ(1)","","33.581305","130.252801","3007303-01","","0","3007303","",""
"3607289-02","","九大東ゲート(2)","","33.601214","130.229387","3607289-02","","0","3607289","",""
"3607290-02","","九大イーストゾーン(2)","","33.598899","130.228839","3607290-02","","0","3607290","",""
"3607291-02","","九大中央図書館(2)","","33.597596","130.2264","3607291-02","","0","3607291","",""
"3607291-01","","九大中央図書館(1)","","33.598328","130.22586","3607291-01","","0","3607291","",""
"3607290-01","","九大イーストゾーン(1)","","33.599743","130.228202","3607290-01","","0","3607290","",""
"3607289-01","","九大東ゲート(1)","","33.601364","130.229395","3607289-01","","0","3607289","",""
"3607254-02","","九大学研都市駅 2番乗り場","","33.578432","130.2592","3607254-02","","0","3607254","",""
"3607255-02","","舞鶴高校入口(2)","","33.583532","130.25913","3607255-02","","0","3607255","",""
"3607256-02","","横浜西(2)","","33.585706","130.258366","3607256-02","","0","3607256","",""
"3607078-02","","工芸会ワークセンター(2)","","33.586825","130.256667","3607078-02","","0","3607078","",""
"3607077-02","","玄洋高校(2)","","33.587279","130.252839","3607077-02","","0","3607077","",""
"3607076-02","","今出(2)","","33.58791","130.247386","3607076-02","","0","3607076","",""
"3607277-00","","桑原西","","33.602521","130.222511","3607277-00","","0","3607277","",""
"3607278-00","","桑原公民館","","33.603804","130.224891","3607278-00","","0","3607278","",""
"3607279-00","","桑原東","","33.604935","130.227748","3607279-00","","0","3607279","",""
"3607280-00","","九大伊都協奏館","","33.603345","130.228517","3607280-00","","0","3607280","",""
"3607254-04","","九大学研都市駅 4番乗り場","","33.578257","130.258796","3607254-04","","0","3607254","",""
"3609005-02","","泊北口(2)","","33.584793","130.215236","3609005-02","","0","3609005","",""
"3007299-02","","国際村前","","33.583921","130.212984","3007299-02","","0","3007299","",""
"3007301-02","","仏青寮前","","33.5846","130.210423","3007301-02","","0","3007301","",""
"3007301-01","","仏青寮前","","33.584534","130.210689","3007301-01","","0","3007301","",""
"3007299-01","","国際村前","","33.584058","130.213196","3007299-01","","0","3007299","",""
"3609005-01","","泊北口(1)","","33.584877","130.215086","3609005-01","","0","3609005","",""
"3607076-01","","今出(1)","","33.587948","130.247785","3607076-01","","0","3607076","",""
"3607077-01","","玄洋高校(1)","","33.587504","130.252","3607077-01","","0","3607077","",""
"3607078-01","","工芸会ワークセンター(1)","","33.58689","130.257","3607078-01","","0","3607078","",""
"3607256-01","","横浜西(1)","","33.584652","130.258821","3607256-01","","0","3607256","",""
"3607255-01","","舞鶴高校入口(1)","","33.583293","130.259359","3607255-01","","0","3607255","",""
"3007302-00","","一蘭の森（糸島）","","33.592849","130.201198","3007302-00","","0","3007302","",""
"3607073-02","","元岡(2)","","33.591148","130.22373","3607073-02","","0","3607073","",""
"3607072-00","","山手","","33.594935","130.2261","3607072-00","","0","3607072","",""
"3607073-01","","元岡(1)","","33.591219","130.223566","3607073-01","","0","3607073","",""
"3607216-00","","前原駅北口","","33.557194","130.198765","3607216-00","","0","3607216","",""
"3607132-01","","丸田池公園前(1)","","33.557996","130.198453","3607132-01","","0","3607132","",""
"3607005-01","","伊都文化会館前(1)","","33.560204","130.203702","3607005-01","","0","3607005","",""
"3607006-01","","糸島農協前(1)","","33.560984","130.208266","3607006-01","","0","3607006","",""
"3607007-01","","浦志(1)","","33.562199","130.212481","3607007-01","","0","3607007","",""
"3607008-01","","潤(1)","","33.563636","130.218435","3607008-01","","0","3607008","",""
"3607009-01","","産の宮(1)","","33.564563","130.223273","3607009-01","","0","3607009","",""
"3609001-01","","産の宮北(1)","","33.565757","130.224189","3609001-01","","0","3609001","",""
"3607293-01","","東風小学校東(1)","","33.567248","130.220232","3607293-01","","0","3607293","",""
"3607294-01","","東風コミュニティセンター前(1)","","33.568434","130.21505","3607294-01","","0","3607294","",""
"3607296-01","","泊三区(1)","","33.571536","130.213615","3607296-01","","0","3607296","",""
"3609004-01","","泊東口(1)","","33.574736","130.213477","3609004-01","","0","3609004","",""
"3607101-01","","大塚(1)","","33.578666","130.215272","3607101-01","","0","3607101","",""
"3007300-00","","伊都の湯どころ入口","","33.583619","130.214473","3007300-00","","0","3007300","",""
"3607253-03","","九大ビッグオレンジ(3)","","33.597778","130.221981","3607253-03","","0","3607253","",""
"3007300-01","","伊都の湯どころ入口","","33.583371","130.214813","3007300-01","","0","3007300","",""
"3607101-02","","大塚(2)","","33.578789","130.215458","3607101-02","","0","3607101","",""
"3609004-02","","泊東口(2)","","33.574661","130.213521","3609004-02","","0","3609004","",""
"3607296-02","","泊三区(2)","","33.571741","130.213649","3607296-02","","0","3607296","",""
"3607294-02","","東風コミュニティセンター前(2)","","33.568223","130.215267","3607294-02","","0","3607294","",""
"3607293-02","","東風小学校東(2)","","33.567294","130.220119","3607293-02","","0","3607293","",""
"3609001-02","","産の宮北(2)","","33.565646","130.224472","3609001-02","","0","3609001","",""
"3607009-02","","産の宮(2)","","33.564616","130.223863","3607009-02","","0","3607009","",""
"3607008-02","","潤(2)","","33.563487","130.218121","3607008-02","","0","3607008","",""
"3607007-02","","浦志(2)","","33.56211","130.212522","3607007-02","","0","3607007","",""
"3607006-02","","糸島農協前(2)","","33.560643","130.207327","3607006-02","","0","3607006","",""
"3607005-02","","伊都文化会館前(2)","","33.560088","130.203692","3607005-02","","0","3607005","",""
"3607132-02","","丸田池公園前(2)","","33.5582","130.198505","3607132-02","","0","3607132","",""
"3607012-01","","周船寺小学校前(1)","","33.571619","130.240038","3607012-01","","0","3607012","",""
"3607011-01","","高田（前原）(1)","","33.570419","130.235998","3607011-01","","0","3607011","",""
"3607010-01","","波多江小学校前(1)","","33.567271","130.230932","3607010-01","","0","3607010","",""
"3609002-01","","東風小学校入口(1)","","33.568088","130.220598","3609002-01","","0","3609002","",""
"3609003-01","","志登(1)","","33.572228","130.218744","3609003-01","","0","3609003","",""
"3609003-02","","志登(2)","","33.57214","130.218979","3609003-02","","0","3609003","",""
"3609002-02","","東風小学校入口(2)","","33.568007","130.220731","3609002-02","","0","3609002","",""
"3607010-02","","波多江小学校前(2)","","33.566601","130.229775","3607010-02","","0","3607010","",""
"3607011-02","","高田（前原）(2)","","33.570967","130.237463","3607011-02","","0","3607011","",""
"3607012-02","","周船寺小学校前(2)","","33.572021","130.240977","3607012-02","","0","3607012","",""
"3607099-00","","馬場","","33.58731","130.203667","3607099-00","","0","3607099","",""
"3607098-00","","松隈","","33.586643","130.199777","3607098-00","","0","3607098","",""
"3607217-00","","町頭","","33.581254","130.201504","3607217-00","","0","3607217","",""
"3607218-00","","油比","","33.579167","130.200266","3607218-00","","0","3607218","",""
"3607094-00","","新田（前原市）","","33.572357","130.200141","3607094-00","","0","3607094","",""
"3607213-00","","医師会病院前","","33.567481","130.202213","3607213-00","","0","3607213","",""
"3607093-02","","吉原橋(2)","","33.56556","130.202331","3607093-02","","0","3607093","",""
"3609054-02","","前原コミュニティセンター前(2)","","33.561312","130.202451","3609054-02","","0","3609054","",""
"3609054-01","","前原コミュニティセンター前(1)","","33.561319","130.20233","3609054-01","","0","3609054","",""
"3607093-01","","吉原橋(1)","","33.565011","130.202117","3607093-01","","0","3607093","",""
"3607095-00","","泊二区","","33.575694","130.204215","3607095-00","","0","3607095","",""
"3607096-00","","泊一区","","33.577098","130.209324","3607096-00","","0","3607096","",""
"3607100-02","","桂木（前原）(1)","","33.583872","130.210907","3607100-02","","0","3607100","",""
"3007186-00","","井原山入口","","33.498543","130.248229","3007186-00","","0","3007186","",""
"3007185-00","","瑞梅寺ダム","","33.504383","130.249098","3007185-00","","0","3007185","",""
"3007184-00","","辰ヶ橋","","33.50897","130.247989","3007184-00","","0","3007184","",""
"3009068-00","","辰ヶ橋入口","","33.512654","130.244843","3009068-00","","0","3009068","",""
"3007183-00","","瑞梅寺","","33.515763","130.241796","3007183-00","","0","3007183","",""
"3009067-00","","瑞梅寺入口","","33.519564","130.240907","3009067-00","","0","3009067","",""
"3007169-00","","井原（前原）","","33.527271","130.243031","3007169-00","","0","3007169","",""
"3007168-00","","下町（前原）","","33.53243","130.242663","3007168-00","","0","3007168","",""
"3007215-00","","伊都国歴史博物館","","33.537647","130.250946","3007215-00","","0","3007215","",""
"3007167-00","","三雲宮前","","33.537329","130.242067","3007167-00","","0","3007167","",""
"3007166-01","","三雲橋","","33.539854","130.238704","3007166-01","","0","3007166","",""
"3007165-00","","井田","","33.5464","130.233816","3007165-00","","0","3007165","",""
"3007156-02","","前原東中前","","33.546062","130.230953","3007156-02","","0","3007156","",""
"3007157-00","","平原古墳入口","","33.543451","130.230514","3007157-00","","0","3007157","",""
"3007158-00","","三雲入口","","33.540615","130.230855","3007158-00","","0","3007158","",""
"3007159-00","","曽根公民館","","33.538513","130.231109","3007159-00","","0","3007159","",""
"3007160-00","","銭瓶塚","","33.535521","130.23148","3007160-00","","0","3007160","",""
"3007205-00","","曽根","","33.532805","130.231826","3007205-00","","0","3007205","",""
"3007161-00","","曽根グラウンド","","33.530649","130.232091","3007161-00","","0","3007161","",""
"3007164-00","","中町","","33.552148","130.231121","3007164-00","","0","3007164","",""
"3009007-01","","JA伊都菜彩前","","33.555785","130.229187","3009007-01","","0","3009007","",""
"3007163-00","","波多江","","33.559874","130.227424","3007163-00","","0","3007163","",""
"3007162-01","","波多江駅西","","33.56293","130.225762","3007162-01","","0","3007162","",""
"3007162-02","","波多江駅西","","33.562921","130.225887","3007162-02","","0","3007162","",""
"3007166-02","","三雲橋","","33.539956","130.238743","3007166-02","","0","3007166","",""
"3036168-00","","星賀","","33.449833","129.790193","3036168-00","","0","3036168","",""
"3036169-00","","里","","33.45088","129.7916","3036169-00","","0","3036169","",""
"3036170-00","","伊仲","","33.44949","129.79424","3036170-00","","0","3036170","",""
"3036171-00","","松山","","33.44653","129.79678","3036171-00","","0","3036171","",""
"3036172-00","","宇の山","","33.44366","129.80923","3036172-00","","0","3036172","",""
"3032150-00","","入野","","33.44143","129.81551","3032150-00","","0","3032150","",""
"3038176-00","","福祉センター前","","33.42242","129.83235","3038176-00","","0","3038176","",""
"3038177-00","","細浦","","33.42163","129.82925","3038177-00","","0","3038177","",""
"3038178-00","","高串","","33.42273","129.8262","3038178-00","","0","3038178","",""
"3038179-00","","土井の浦","","33.42398","129.82513","3038179-00","","0","3038179","",""
"3038180-00","","田野入口","","33.42918","129.82803","3038180-00","","0","3038180","",""
"3032153-02","","古保志気(2)","","33.43219","129.82936","3032153-02","","0","3032153","",""
"3032152-00","","長畑","","33.43692","129.8231","3032152-00","","0","3032152","",""
"3032151-00","","肥前中学校前","","33.44066","129.81908","3032151-00","","0","3032151","",""
"3037173-00","","菖津","","33.45555","129.83545","3037173-00","","0","3037173","",""
"3037174-00","","大鶴","","33.45192","129.83484","3037174-00","","0","3037174","",""
"3037175-00","","大鶴入口","","33.44291","129.83488","3037175-00","","0","3037175","",""
"3032154-00","","梅崎","","33.44228","129.839","3032154-00","","0","3032154","",""
"3035161-00","","納所","","33.46775","129.8116","3035161-00","","0","3035161","",""
"3035162-00","","農協前（肥前町）","","33.46683","129.81476","3035162-00","","0","3035162","",""
"3035163-00","","内木場","","33.46487","129.81662","3035163-00","","0","3035163","",""
"3035164-00","","山口","","33.46339","129.81976","3035164-00","","0","3035164","",""
"3035165-00","","柳田橋","","33.4571","129.82059","3035165-00","","0","3035165","",""
"3035166-00","","山添","","33.44703","129.81734","3035166-00","","0","3035166","",""
"3035167-00","","山田前","","33.44504","129.81509","3035167-00","","0","3035167","",""
"3001023-02","","大手口（唐津バスセンター2番乗り場）","","33.449551","129.969443","3001023-02","","0","3001023","",""
"3041218-20","","坊主町(2)","","33.44981","129.96481","3041218-20","","0","3041218","",""
"3041217-00","","熊の原","","33.44586","129.9622","3041217-00","","0","3041217","",""
